{
"type": "FeatureCollection",
"name": "directed_Pperuviana_5km_10steps_10reps_mun_network_nodes",
"crs": { "type": "name", "properties": { "name": "urn:ogc:def:crs:OGC:1.3:CRS84" } },
"features": [
{ "type": "Feature", "properties": { "id": "5361", "label": "5361", "district": "", "municipality": "ITUANGO" }, "geometry": { "type": "Point", "coordinates": [ -75.764673, 7.171629 ] } },
{ "type": "Feature", "properties": { "id": "5790", "label": "5790", "district": "", "municipality": "TARAZÁ" }, "geometry": { "type": "Point", "coordinates": [ -75.401407, 7.580127 ] } },
{ "type": "Feature", "properties": { "id": "5854", "label": "5854", "district": "", "municipality": "VALDIVIA" }, "geometry": { "type": "Point", "coordinates": [ -75.439274, 7.1652 ] } },
{ "type": "Feature", "properties": { "id": "5480", "label": "5480", "district": "", "municipality": "MUTATÁ" }, "geometry": { "type": "Point", "coordinates": [ -76.435875, 7.242875 ] } },
{ "type": "Feature", "properties": { "id": "5543", "label": "5543", "district": "", "municipality": "PEQUE" }, "geometry": { "type": "Point", "coordinates": [ -75.910357, 7.021029 ] } },
{ "type": "Feature", "properties": { "id": "5234", "label": "5234", "district": "", "municipality": "DABEIBA" }, "geometry": { "type": "Point", "coordinates": [ -76.261614, 6.998112 ] } },
{ "type": "Feature", "properties": { "id": "5107", "label": "5107", "district": "", "municipality": "BRICEÑO" }, "geometry": { "type": "Point", "coordinates": [ -75.55036, 7.112803 ] } },
{ "type": "Feature", "properties": { "id": "5887", "label": "5887", "district": "", "municipality": "YARUMAL" }, "geometry": { "type": "Point", "coordinates": [ -75.418828, 6.963832 ] } },
{ "type": "Feature", "properties": { "id": "5134", "label": "5134", "district": "", "municipality": "CAMPAMENTO" }, "geometry": { "type": "Point", "coordinates": [ -75.298091, 6.979771 ] } },
{ "type": "Feature", "properties": { "id": "5842", "label": "5842", "district": "", "municipality": "URAMITA" }, "geometry": { "type": "Point", "coordinates": [ -76.173284, 6.898393 ] } },
{ "type": "Feature", "properties": { "id": "5138", "label": "5138", "district": "", "municipality": "CAÑASGORDAS" }, "geometry": { "type": "Point", "coordinates": [ -76.028228, 6.753859 ] } },
{ "type": "Feature", "properties": { "id": "5113", "label": "5113", "district": "", "municipality": "BURITICÁ" }, "geometry": { "type": "Point", "coordinates": [ -75.907, 6.720759 ] } },
{ "type": "Feature", "properties": { "id": "5819", "label": "5819", "district": "", "municipality": "TOLEDO" }, "geometry": { "type": "Point", "coordinates": [ -75.692281, 7.010328 ] } },
{ "type": "Feature", "properties": { "id": "5647", "label": "5647", "district": "", "municipality": "SAN ANDRÉS DE CUERQUÍA" }, "geometry": { "type": "Point", "coordinates": [ -75.674564, 6.916676 ] } },
{ "type": "Feature", "properties": { "id": "5038", "label": "5038", "district": "", "municipality": "ANGOSTURA" }, "geometry": { "type": "Point", "coordinates": [ -75.335116, 6.885175 ] } },
{ "type": "Feature", "properties": { "id": "5040", "label": "5040", "district": "", "municipality": "ANORÍ" }, "geometry": { "type": "Point", "coordinates": [ -75.148355, 7.074703 ] } },
{ "type": "Feature", "properties": { "id": "5628", "label": "5628", "district": "", "municipality": "SABANALARGA" }, "geometry": { "type": "Point", "coordinates": [ -75.816645, 6.850028 ] } },
{ "type": "Feature", "properties": { "id": "5686", "label": "5686", "district": "", "municipality": "SANTA ROSA DE OSOS" }, "geometry": { "type": "Point", "coordinates": [ -75.460723, 6.643366 ] } },
{ "type": "Feature", "properties": { "id": "5658", "label": "5658", "district": "", "municipality": "SAN JOSÉ DE LA MONTAÑA" }, "geometry": { "type": "Point", "coordinates": [ -75.683352, 6.85009 ] } },
{ "type": "Feature", "properties": { "id": "5315", "label": "5315", "district": "", "municipality": "GUADALUPE" }, "geometry": { "type": "Point", "coordinates": [ -75.239862, 6.815069 ] } },
{ "type": "Feature", "properties": { "id": "5031", "label": "5031", "district": "", "municipality": "AMALFI" }, "geometry": { "type": "Point", "coordinates": [ -75.077501, 6.909655 ] } },
{ "type": "Feature", "properties": { "id": "5284", "label": "5284", "district": "", "municipality": "FRONTINO" }, "geometry": { "type": "Point", "coordinates": [ -76.130765, 6.776066 ] } },
{ "type": "Feature", "properties": { "id": "5411", "label": "5411", "district": "", "municipality": "LIBORINA" }, "geometry": { "type": "Point", "coordinates": [ -75.812838, 6.677316 ] } },
{ "type": "Feature", "properties": { "id": "5150", "label": "5150", "district": "", "municipality": "CAROLINA" }, "geometry": { "type": "Point", "coordinates": [ -75.283192, 6.725995 ] } },
{ "type": "Feature", "properties": { "id": "5086", "label": "5086", "district": "", "municipality": "BELMIRA" }, "geometry": { "type": "Point", "coordinates": [ -75.667779, 6.606319 ] } },
{ "type": "Feature", "properties": { "id": "5310", "label": "5310", "district": "", "municipality": "GÓMEZ PLATA" }, "geometry": { "type": "Point", "coordinates": [ -75.220018, 6.683269 ] } },
{ "type": "Feature", "properties": { "id": "5890", "label": "5890", "district": "", "municipality": "YOLOMBÓ" }, "geometry": { "type": "Point", "coordinates": [ -75.013385, 6.594511 ] } },
{ "type": "Feature", "properties": { "id": "5306", "label": "5306", "district": "", "municipality": "GIRALDO" }, "geometry": { "type": "Point", "coordinates": [ -75.952158, 6.680808 ] } },
{ "type": "Feature", "properties": { "id": "5004", "label": "5004", "district": "", "municipality": "ABRIAQUÍ" }, "geometry": { "type": "Point", "coordinates": [ -76.064304, 6.632282 ] } },
{ "type": "Feature", "properties": { "id": "5264", "label": "5264", "district": "", "municipality": "ENTRERRÍOS" }, "geometry": { "type": "Point", "coordinates": [ -75.517685, 6.566273 ] } },
{ "type": "Feature", "properties": { "id": "5847", "label": "5847", "district": "", "municipality": "URRAO" }, "geometry": { "type": "Point", "coordinates": [ -76.133951, 6.317343 ] } },
{ "type": "Feature", "properties": { "id": "5042", "label": "5042", "district": "", "municipality": "SANTA FÉ DE ANTIOQUIA" }, "geometry": { "type": "Point", "coordinates": [ -75.826648, 6.556484 ] } },
{ "type": "Feature", "properties": { "id": "5501", "label": "5501", "district": "", "municipality": "OLAYA" }, "geometry": { "type": "Point", "coordinates": [ -75.811773, 6.626492 ] } },
{ "type": "Feature", "properties": { "id": "5761", "label": "5761", "district": "", "municipality": "SOPETRÁN" }, "geometry": { "type": "Point", "coordinates": [ -75.747378, 6.500745 ] } },
{ "type": "Feature", "properties": { "id": "5664", "label": "5664", "district": "", "municipality": "SAN PEDRO DE LOS MILAGROS" }, "geometry": { "type": "Point", "coordinates": [ -75.556743, 6.46012 ] } },
{ "type": "Feature", "properties": { "id": "5237", "label": "5237", "district": "", "municipality": "DONMATÍAS" }, "geometry": { "type": "Point", "coordinates": [ -75.39263, 6.485603 ] } },
{ "type": "Feature", "properties": { "id": "5125", "label": "5125", "district": "", "municipality": "CAICEDO" }, "geometry": { "type": "Point", "coordinates": [ -75.98293, 6.405607 ] } },
{ "type": "Feature", "properties": { "id": "5656", "label": "5656", "district": "", "municipality": "SAN JERÓNIMO" }, "geometry": { "type": "Point", "coordinates": [ -75.726975, 6.44809 ] } },
{ "type": "Feature", "properties": { "id": "5308", "label": "5308", "district": "", "municipality": "GIRARDOTA" }, "geometry": { "type": "Point", "coordinates": [ -75.444238, 6.379472 ] } },
{ "type": "Feature", "properties": { "id": "5079", "label": "5079", "district": "", "municipality": "BARBOSA" }, "geometry": { "type": "Point", "coordinates": [ -75.331627, 6.439195 ] } },
{ "type": "Feature", "properties": { "id": "5088", "label": "5088", "district": "", "municipality": "BELLO" }, "geometry": { "type": "Point", "coordinates": [ -75.555245, 6.333587 ] } },
{ "type": "Feature", "properties": { "id": "5212", "label": "5212", "district": "", "municipality": "COPACABANA" }, "geometry": { "type": "Point", "coordinates": [ -75.509384, 6.348557 ] } },
{ "type": "Feature", "properties": { "id": "5674", "label": "5674", "district": "", "municipality": "SAN VICENTE FERRER" }, "geometry": { "type": "Point", "coordinates": [ -75.332616, 6.282164 ] } },
{ "type": "Feature", "properties": { "id": "5690", "label": "5690", "district": "", "municipality": "SANTO DOMINGO" }, "geometry": { "type": "Point", "coordinates": [ -75.164903, 6.473032 ] } },
{ "type": "Feature", "properties": { "id": "5190", "label": "5190", "district": "", "municipality": "CISNEROS" }, "geometry": { "type": "Point", "coordinates": [ -75.087047, 6.537829 ] } },
{ "type": "Feature", "properties": { "id": "5206", "label": "5206", "district": "", "municipality": "CONCEPCIÓN" }, "geometry": { "type": "Point", "coordinates": [ -75.257587, 6.394348 ] } },
{ "type": "Feature", "properties": { "id": "5670", "label": "5670", "district": "", "municipality": "SAN ROQUE" }, "geometry": { "type": "Point", "coordinates": [ -75.019109, 6.485939 ] } },
{ "type": "Feature", "properties": { "id": "5044", "label": "5044", "district": "", "municipality": "ANZÁ" }, "geometry": { "type": "Point", "coordinates": [ -75.854442, 6.302641 ] } },
{ "type": "Feature", "properties": { "id": "5021", "label": "5021", "district": "", "municipality": "ALEJANDRÍA" }, "geometry": { "type": "Point", "coordinates": [ -75.141346, 6.376061 ] } },
{ "type": "Feature", "properties": { "id": "5001", "label": "5001", "district": "", "municipality": "MEDELLÍN" }, "geometry": { "type": "Point", "coordinates": [ -75.581775, 6.246631 ] } },
{ "type": "Feature", "properties": { "id": "5318", "label": "5318", "district": "", "municipality": "GUARNE" }, "geometry": { "type": "Point", "coordinates": [ -75.441612, 6.27787 ] } },
{ "type": "Feature", "properties": { "id": "5321", "label": "5321", "district": "", "municipality": "GUATAPÉ" }, "geometry": { "type": "Point", "coordinates": [ -75.160041, 6.232461 ] } },
{ "type": "Feature", "properties": { "id": "5541", "label": "5541", "district": "", "municipality": "PEÑOL" }, "geometry": { "type": "Point", "coordinates": [ -75.242693, 6.219349 ] } },
{ "type": "Feature", "properties": { "id": "5240", "label": "5240", "district": "", "municipality": "EBÉJICO" }, "geometry": { "type": "Point", "coordinates": [ -75.766413, 6.325615 ] } },
{ "type": "Feature", "properties": { "id": "5347", "label": "5347", "district": "", "municipality": "HELICONIA" }, "geometry": { "type": "Point", "coordinates": [ -75.734322, 6.206757 ] } },
{ "type": "Feature", "properties": { "id": "5093", "label": "5093", "district": "", "municipality": "BETULIA" }, "geometry": { "type": "Point", "coordinates": [ -75.984452, 6.115208 ] } },
{ "type": "Feature", "properties": { "id": "5667", "label": "5667", "district": "", "municipality": "SAN RAFAEL" }, "geometry": { "type": "Point", "coordinates": [ -75.02849, 6.293759 ] } },
{ "type": "Feature", "properties": { "id": "5313", "label": "5313", "district": "", "municipality": "GRANADA" }, "geometry": { "type": "Point", "coordinates": [ -75.184446, 6.142892 ] } },
{ "type": "Feature", "properties": { "id": "5649", "label": "5649", "district": "", "municipality": "SAN CARLOS" }, "geometry": { "type": "Point", "coordinates": [ -74.988097, 6.187746 ] } },
{ "type": "Feature", "properties": { "id": "5440", "label": "5440", "district": "", "municipality": "MARINILLA" }, "geometry": { "type": "Point", "coordinates": [ -75.339345, 6.173995 ] } },
{ "type": "Feature", "properties": { "id": "5615", "label": "5615", "district": "", "municipality": "RIONEGRO" }, "geometry": { "type": "Point", "coordinates": [ -75.377316, 6.147148 ] } },
{ "type": "Feature", "properties": { "id": "5697", "label": "5697", "district": "", "municipality": "EL SANTUARIO" }, "geometry": { "type": "Point", "coordinates": [ -75.265465, 6.136871 ] } },
{ "type": "Feature", "properties": { "id": "5266", "label": "5266", "district": "", "municipality": "ENVIGADO" }, "geometry": { "type": "Point", "coordinates": [ -75.582192, 6.166695 ] } },
{ "type": "Feature", "properties": { "id": "5380", "label": "5380", "district": "", "municipality": "LA ESTRELLA" }, "geometry": { "type": "Point", "coordinates": [ -75.637708, 6.145238 ] } },
{ "type": "Feature", "properties": { "id": "5036", "label": "5036", "district": "", "municipality": "ANGELÓPOLIS" }, "geometry": { "type": "Point", "coordinates": [ -75.711389, 6.109719 ] } },
{ "type": "Feature", "properties": { "id": "5607", "label": "5607", "district": "", "municipality": "RETIRO" }, "geometry": { "type": "Point", "coordinates": [ -75.501301, 6.062454 ] } },
{ "type": "Feature", "properties": { "id": "5360", "label": "5360", "district": "", "municipality": "ITAGÜÍ" }, "geometry": { "type": "Point", "coordinates": [ -75.612056, 6.175079 ] } },
{ "type": "Feature", "properties": { "id": "5197", "label": "5197", "district": "", "municipality": "COCORNÁ" }, "geometry": { "type": "Point", "coordinates": [ -75.185483, 6.058295 ] } },
{ "type": "Feature", "properties": { "id": "5059", "label": "5059", "district": "", "municipality": "ARMENIA" }, "geometry": { "type": "Point", "coordinates": [ -75.786647, 6.155667 ] } },
{ "type": "Feature", "properties": { "id": "5148", "label": "5148", "district": "", "municipality": "EL CARMEN DE VIBORAL" }, "geometry": { "type": "Point", "coordinates": [ -75.333901, 6.082885 ] } },
{ "type": "Feature", "properties": { "id": "5030", "label": "5030", "district": "", "municipality": "AMAGÁ" }, "geometry": { "type": "Point", "coordinates": [ -75.702188, 6.038708 ] } },
{ "type": "Feature", "properties": { "id": "5129", "label": "5129", "district": "", "municipality": "CALDAS" }, "geometry": { "type": "Point", "coordinates": [ -75.633673, 6.091077 ] } },
{ "type": "Feature", "properties": { "id": "5809", "label": "5809", "district": "", "municipality": "TITIRIBÍ" }, "geometry": { "type": "Point", "coordinates": [ -75.791887, 6.062391 ] } },
{ "type": "Feature", "properties": { "id": "5631", "label": "5631", "district": "", "municipality": "SABANETA" }, "geometry": { "type": "Point", "coordinates": [ -75.615479, 6.149903 ] } },
{ "type": "Feature", "properties": { "id": "5376", "label": "5376", "district": "", "municipality": "LA CEJA" }, "geometry": { "type": "Point", "coordinates": [ -75.429433, 6.028062 ] } },
{ "type": "Feature", "properties": { "id": "5642", "label": "5642", "district": "", "municipality": "SALGAR" }, "geometry": { "type": "Point", "coordinates": [ -75.976807, 5.964198 ] } },
{ "type": "Feature", "properties": { "id": "5209", "label": "5209", "district": "", "municipality": "CONCORDIA" }, "geometry": { "type": "Point", "coordinates": [ -75.908448, 6.045738 ] } },
{ "type": "Feature", "properties": { "id": "5400", "label": "5400", "district": "", "municipality": "LA UNIÓN" }, "geometry": { "type": "Point", "coordinates": [ -75.360874, 5.973845 ] } },
{ "type": "Feature", "properties": { "id": "5660", "label": "5660", "district": "", "municipality": "SAN LUIS" }, "geometry": { "type": "Point", "coordinates": [ -74.993619, 6.043017 ] } },
{ "type": "Feature", "properties": { "id": "5467", "label": "5467", "district": "", "municipality": "MONTEBELLO" }, "geometry": { "type": "Point", "coordinates": [ -75.523455, 5.946313 ] } },
{ "type": "Feature", "properties": { "id": "5679", "label": "5679", "district": "", "municipality": "SANTA BÁRBARA" }, "geometry": { "type": "Point", "coordinates": [ -75.567351, 5.875527 ] } },
{ "type": "Feature", "properties": { "id": "5282", "label": "5282", "district": "", "municipality": "FREDONIA" }, "geometry": { "type": "Point", "coordinates": [ -75.675072, 5.928039 ] } },
{ "type": "Feature", "properties": { "id": "5002", "label": "5002", "district": "", "municipality": "ABEJORRAL" }, "geometry": { "type": "Point", "coordinates": [ -75.428739, 5.789315 ] } },
{ "type": "Feature", "properties": { "id": "5861", "label": "5861", "district": "", "municipality": "VENECIA" }, "geometry": { "type": "Point", "coordinates": [ -75.735544, 5.964693 ] } },
{ "type": "Feature", "properties": { "id": "5101", "label": "5101", "district": "", "municipality": "CIUDAD BOLÍVAR" }, "geometry": { "type": "Point", "coordinates": [ -76.021509, 5.850273 ] } },
{ "type": "Feature", "properties": { "id": "5756", "label": "5756", "district": "", "municipality": "SONSÓN" }, "geometry": { "type": "Point", "coordinates": [ -75.309596, 5.714851 ] } },
{ "type": "Feature", "properties": { "id": "5792", "label": "5792", "district": "", "municipality": "TARSO" }, "geometry": { "type": "Point", "coordinates": [ -75.822956, 5.864542 ] } },
{ "type": "Feature", "properties": { "id": "5368", "label": "5368", "district": "", "municipality": "JERICÓ" }, "geometry": { "type": "Point", "coordinates": [ -75.785499, 5.789748 ] } },
{ "type": "Feature", "properties": { "id": "5576", "label": "5576", "district": "", "municipality": "PUEBLORRICO" }, "geometry": { "type": "Point", "coordinates": [ -75.839903, 5.79158 ] } },
{ "type": "Feature", "properties": { "id": "5789", "label": "5789", "district": "", "municipality": "TÁMESIS" }, "geometry": { "type": "Point", "coordinates": [ -75.714429, 5.664645 ] } },
{ "type": "Feature", "properties": { "id": "5091", "label": "5091", "district": "", "municipality": "BETANIA" }, "geometry": { "type": "Point", "coordinates": [ -75.97679, 5.74615 ] } },
{ "type": "Feature", "properties": { "id": "5034", "label": "5034", "district": "", "municipality": "ANDES" }, "geometry": { "type": "Point", "coordinates": [ -75.878828, 5.657194 ] } },
{ "type": "Feature", "properties": { "id": "5055", "label": "5055", "district": "", "municipality": "ARGELIA" }, "geometry": { "type": "Point", "coordinates": [ -75.14107, 5.731474 ] } },
{ "type": "Feature", "properties": { "id": "5353", "label": "5353", "district": "", "municipality": "HISPANIA" }, "geometry": { "type": "Point", "coordinates": [ -75.906587, 5.799461 ] } },
{ "type": "Feature", "properties": { "id": "5483", "label": "5483", "district": "", "municipality": "NARIÑO" }, "geometry": { "type": "Point", "coordinates": [ -75.176262, 5.610777 ] } },
{ "type": "Feature", "properties": { "id": "5652", "label": "5652", "district": "", "municipality": "SAN FRANCISCO" }, "geometry": { "type": "Point", "coordinates": [ -75.101562, 5.963476 ] } },
{ "type": "Feature", "properties": { "id": "5364", "label": "5364", "district": "", "municipality": "JARDÍN" }, "geometry": { "type": "Point", "coordinates": [ -75.818982, 5.597542 ] } },
{ "type": "Feature", "properties": { "id": "5856", "label": "5856", "district": "", "municipality": "VALPARAÍSO" }, "geometry": { "type": "Point", "coordinates": [ -75.624452, 5.614555 ] } },
{ "type": "Feature", "properties": { "id": "5145", "label": "5145", "district": "", "municipality": "CARAMANTA" }, "geometry": { "type": "Point", "coordinates": [ -75.643868, 5.54853 ] } }
]
}
