{
"type": "FeatureCollection",
"name": "undirected_Pperuviana_2km_10steps_10reps_districts_network_nodes",
"crs": { "type": "name", "properties": { "name": "urn:ogc:def:crs:OGC:1.3:CRS84" } },
"features": [
{ "type": "Feature", "properties": { "id": "5361051", "label": "5361051", "district": "LA MARIA", "municipality": "ITUANGO" }, "geometry": { "type": "Point", "coordinates": [ -75.590172741964821, 7.332840672584045 ] } },
{ "type": "Feature", "properties": { "id": "5361047", "label": "5361047", "district": "LA HERMOSA", "municipality": "ITUANGO" }, "geometry": { "type": "Point", "coordinates": [ -75.612333005544571, 7.341342544048324 ] } },
{ "type": "Feature", "properties": { "id": "5361066", "label": "5361066", "district": "MANICEROS", "municipality": "ITUANGO" }, "geometry": { "type": "Point", "coordinates": [ -75.587385874427625, 7.364517376983676 ] } },
{ "type": "Feature", "properties": { "id": "5361038", "label": "5361038", "district": "LA AMERICA", "municipality": "ITUANGO" }, "geometry": { "type": "Point", "coordinates": [ -75.531055512412905, 7.314972356236696 ] } },
{ "type": "Feature", "properties": { "id": "5854030", "label": "5854030", "district": "SAN JOSÉ DE GENOVAS", "municipality": "VALDIVIA" }, "geometry": { "type": "Point", "coordinates": [ -75.480336977585964, 7.335896324647788 ] } },
{ "type": "Feature", "properties": { "id": "5361086", "label": "5361086", "district": "SAN MARCOS", "municipality": "ITUANGO" }, "geometry": { "type": "Point", "coordinates": [ -75.56577762954079, 7.414445514296716 ] } },
{ "type": "Feature", "properties": { "id": "5361070", "label": "5361070", "district": "PALMICHAL", "municipality": "ITUANGO" }, "geometry": { "type": "Point", "coordinates": [ -75.558430377552241, 7.311492776149563 ] } },
{ "type": "Feature", "properties": { "id": "5361072", "label": "5361072", "district": "PARQUE NAL NATURAL DEL PARAMILLO", "municipality": "ITUANGO" }, "geometry": { "type": "Point", "coordinates": [ -76.115740959503157, 7.269761615371658 ] } },
{ "type": "Feature", "properties": { "id": "5361055", "label": "5361055", "district": "LA PRENSA", "municipality": "ITUANGO" }, "geometry": { "type": "Point", "coordinates": [ -75.894456122692532, 7.276066843228334 ] } },
{ "type": "Feature", "properties": { "id": "5361002", "label": "5361002", "district": "ALTO DE SAN AGUSTIN", "municipality": "ITUANGO" }, "geometry": { "type": "Point", "coordinates": [ -75.808932877942723, 7.353432218400266 ] } },
{ "type": "Feature", "properties": { "id": "5361088", "label": "5361088", "district": "SANTA LUCIA", "municipality": "ITUANGO" }, "geometry": { "type": "Point", "coordinates": [ -75.826826774495942, 7.311223187744416 ] } },
{ "type": "Feature", "properties": { "id": "5361039", "label": "5361039", "district": "LA BARRANCA", "municipality": "ITUANGO" }, "geometry": { "type": "Point", "coordinates": [ -75.748688186500914, 7.326836176698881 ] } },
{ "type": "Feature", "properties": { "id": "5361080", "label": "5361080", "district": "SAN AGUSTIN DE LEONES", "municipality": "ITUANGO" }, "geometry": { "type": "Point", "coordinates": [ -75.762724466221769, 7.430103677230835 ] } },
{ "type": "Feature", "properties": { "id": "5361054", "label": "5361054", "district": "LA PERLA", "municipality": "ITUANGO" }, "geometry": { "type": "Point", "coordinates": [ -75.725642470960523, 7.384292587896386 ] } },
{ "type": "Feature", "properties": { "id": "5361092", "label": "5361092", "district": "TRAVESIAS", "municipality": "ITUANGO" }, "geometry": { "type": "Point", "coordinates": [ -75.71652869050736, 7.310601089614646 ] } },
{ "type": "Feature", "properties": { "id": "5361079", "label": "5361079", "district": "REVENTON", "municipality": "ITUANGO" }, "geometry": { "type": "Point", "coordinates": [ -75.706667138976741, 7.29843075467069 ] } },
{ "type": "Feature", "properties": { "id": "5361041", "label": "5361041", "district": "LA CIENAGA", "municipality": "ITUANGO" }, "geometry": { "type": "Point", "coordinates": [ -75.685640236287597, 7.381373561078776 ] } },
{ "type": "Feature", "properties": { "id": "5361040", "label": "5361040", "district": "LA CEIBA", "municipality": "ITUANGO" }, "geometry": { "type": "Point", "coordinates": [ -75.681942766471707, 7.333723771955788 ] } },
{ "type": "Feature", "properties": { "id": "5361067", "label": "5361067", "district": "MANZANARES", "municipality": "ITUANGO" }, "geometry": { "type": "Point", "coordinates": [ -75.68075060825484, 7.317425698028851 ] } },
{ "type": "Feature", "properties": { "id": "5361016", "label": "5361016", "district": "EL CAPOTE", "municipality": "ITUANGO" }, "geometry": { "type": "Point", "coordinates": [ -75.749240423658378, 7.304706702843875 ] } },
{ "type": "Feature", "properties": { "id": "5361028", "label": "5361028", "district": "EL RECREO", "municipality": "ITUANGO" }, "geometry": { "type": "Point", "coordinates": [ -75.625346339782126, 7.31082489475228 ] } },
{ "type": "Feature", "properties": { "id": "5361094", "label": "5361094", "district": "LA CRISTALINA", "municipality": "ITUANGO" }, "geometry": { "type": "Point", "coordinates": [ -75.659303588502922, 7.303164606585756 ] } },
{ "type": "Feature", "properties": { "id": "5361043", "label": "5361043", "district": "LA CUEVA", "municipality": "ITUANGO" }, "geometry": { "type": "Point", "coordinates": [ -75.611227487435499, 7.312691807531033 ] } },
{ "type": "Feature", "properties": { "id": "5361025", "label": "5361025", "district": "EL INDIO", "municipality": "ITUANGO" }, "geometry": { "type": "Point", "coordinates": [ -75.648227743272344, 7.35230278354799 ] } },
{ "type": "Feature", "properties": { "id": "5361030", "label": "5361030", "district": "EL TEJAR", "municipality": "ITUANGO" }, "geometry": { "type": "Point", "coordinates": [ -75.592828490646482, 7.303598557607923 ] } },
{ "type": "Feature", "properties": { "id": "5361024", "label": "5361024", "district": "EL HERRERO", "municipality": "ITUANGO" }, "geometry": { "type": "Point", "coordinates": [ -75.751559878685995, 7.282659590603488 ] } },
{ "type": "Feature", "properties": { "id": "5361068", "label": "5361068", "district": "MEDIA FALDA", "municipality": "ITUANGO" }, "geometry": { "type": "Point", "coordinates": [ -75.648600831936776, 7.331907472860034 ] } },
{ "type": "Feature", "properties": { "id": "5361022", "label": "5361022", "district": "EL EDEN", "municipality": "ITUANGO" }, "geometry": { "type": "Point", "coordinates": [ -75.606791254596914, 7.298122056911516 ] } },
{ "type": "Feature", "properties": { "id": "5361021", "label": "5361021", "district": "EL CHUSCAL", "municipality": "ITUANGO" }, "geometry": { "type": "Point", "coordinates": [ -75.795119362694749, 7.289841308235707 ] } },
{ "type": "Feature", "properties": { "id": "5361011", "label": "5361011", "district": "CHONTADURO", "municipality": "ITUANGO" }, "geometry": { "type": "Point", "coordinates": [ -75.775917712685683, 7.2465144175417 ] } },
{ "type": "Feature", "properties": { "id": "5361076", "label": "5361076", "district": "QUEBRADONA", "municipality": "ITUANGO" }, "geometry": { "type": "Point", "coordinates": [ -75.635775716768279, 7.36826196171194 ] } },
{ "type": "Feature", "properties": { "id": "5361027", "label": "5361027", "district": "EL QUINDIO", "municipality": "ITUANGO" }, "geometry": { "type": "Point", "coordinates": [ -75.847077940295662, 7.281943223238399 ] } },
{ "type": "Feature", "properties": { "id": "5361059", "label": "5361059", "district": "LAS ARAÑAS", "municipality": "ITUANGO" }, "geometry": { "type": "Point", "coordinates": [ -75.852205142753235, 7.257433873686233 ] } },
{ "type": "Feature", "properties": { "id": "5361020", "label": "5361020", "district": "EL CHIRIMBOLO", "municipality": "ITUANGO" }, "geometry": { "type": "Point", "coordinates": [ -75.804424195817717, 7.263916742669402 ] } },
{ "type": "Feature", "properties": { "id": "5361060", "label": "5361060", "district": "LAS BRISAS", "municipality": "ITUANGO" }, "geometry": { "type": "Point", "coordinates": [ -75.719235870236759, 7.295494366469295 ] } },
{ "type": "Feature", "properties": { "id": "5361077", "label": "5361077", "district": "CHIRIMBOLO", "municipality": "ITUANGO" }, "geometry": { "type": "Point", "coordinates": [ -75.685303519467084, 7.298642425598967 ] } },
{ "type": "Feature", "properties": { "id": "5361093", "label": "5361093", "district": "VILLEGAS", "municipality": "ITUANGO" }, "geometry": { "type": "Point", "coordinates": [ -75.641271454422608, 7.291575193526996 ] } },
{ "type": "Feature", "properties": { "id": "5361064", "label": "5361064", "district": "LOS VENADOS", "municipality": "ITUANGO" }, "geometry": { "type": "Point", "coordinates": [ -75.572874238429463, 7.290962291826742 ] } },
{ "type": "Feature", "properties": { "id": "5361032", "label": "5361032", "district": "NARANJALES", "municipality": "ITUANGO" }, "geometry": { "type": "Point", "coordinates": [ -75.567763317435023, 7.277361269164158 ] } },
{ "type": "Feature", "properties": { "id": "5361083", "label": "5361083", "district": "SAN LUIS", "municipality": "ITUANGO" }, "geometry": { "type": "Point", "coordinates": [ -75.5600727341088, 7.257287673501751 ] } },
{ "type": "Feature", "properties": { "id": "5361015", "label": "5361015", "district": "EL ARO", "municipality": "ITUANGO" }, "geometry": { "type": "Point", "coordinates": [ -75.514467222674, 7.258688052531639 ] } },
{ "type": "Feature", "properties": { "id": "5480023", "label": "5480023", "district": "PARQUE NATURAL PARAMILLO", "municipality": "MUTATÁ" }, "geometry": { "type": "Point", "coordinates": [ -76.376717814107025, 7.312408930169016 ] } },
{ "type": "Feature", "properties": { "id": "5361007", "label": "5361007", "district": "CANDELARIA ALTA", "municipality": "ITUANGO" }, "geometry": { "type": "Point", "coordinates": [ -75.707884647716398, 7.228917885984619 ] } },
{ "type": "Feature", "properties": { "id": "5361005", "label": "5361005", "district": "CAMELIA ALTA", "municipality": "ITUANGO" }, "geometry": { "type": "Point", "coordinates": [ -75.675554629854048, 7.277657252431945 ] } },
{ "type": "Feature", "properties": { "id": "5361069", "label": "5361069", "district": "ORGANI", "municipality": "ITUANGO" }, "geometry": { "type": "Point", "coordinates": [ -75.478232303945063, 7.253467083804848 ] } },
{ "type": "Feature", "properties": { "id": "5361006", "label": "5361006", "district": "CAMELIA BAJA", "municipality": "ITUANGO" }, "geometry": { "type": "Point", "coordinates": [ -75.647907933349529, 7.272768122802724 ] } },
{ "type": "Feature", "properties": { "id": "5361048", "label": "5361048", "district": "EL CHOCHO", "municipality": "ITUANGO" }, "geometry": { "type": "Point", "coordinates": [ -75.827588024161287, 7.263353349080846 ] } },
{ "type": "Feature", "properties": { "id": "5361075", "label": "5361075", "district": "QUEBRADA DEL MEDIO", "municipality": "ITUANGO" }, "geometry": { "type": "Point", "coordinates": [ -75.813479953136437, 7.242000544922561 ] } },
{ "type": "Feature", "properties": { "id": "5361078", "label": "5361078", "district": "QUEBRADONCITA", "municipality": "ITUANGO" }, "geometry": { "type": "Point", "coordinates": [ -75.795754416720413, 7.235735970362352 ] } },
{ "type": "Feature", "properties": { "id": "5361033", "label": "5361033", "district": "EL ZANCUDO", "municipality": "ITUANGO" }, "geometry": { "type": "Point", "coordinates": [ -75.711076960813443, 7.274086986143499 ] } },
{ "type": "Feature", "properties": { "id": "5361085", "label": "5361085", "district": "SAN LUIS CHISPA", "municipality": "ITUANGO" }, "geometry": { "type": "Point", "coordinates": [ -75.75944668367373, 7.253860261735129 ] } },
{ "type": "Feature", "properties": { "id": "5361065", "label": "5361065", "district": "MANDARINO", "municipality": "ITUANGO" }, "geometry": { "type": "Point", "coordinates": [ -75.72792592498655, 7.265421731700991 ] } },
{ "type": "Feature", "properties": { "id": "5361008", "label": "5361008", "district": "CANDELARIA BAJA", "municipality": "ITUANGO" }, "geometry": { "type": "Point", "coordinates": [ -75.725253882517251, 7.231056900299596 ] } },
{ "type": "Feature", "properties": { "id": "5361053", "label": "5361053", "district": "LA PALIZADA", "municipality": "ITUANGO" }, "geometry": { "type": "Point", "coordinates": [ -75.683010575712629, 7.210493774521745 ] } },
{ "type": "Feature", "properties": { "id": "5361084", "label": "5361084", "district": "LOS CHORRITOS", "municipality": "ITUANGO" }, "geometry": { "type": "Point", "coordinates": [ -75.653800149843761, 7.232787647262625 ] } },
{ "type": "Feature", "properties": { "id": "5361035", "label": "5361035", "district": "FINLANDIA", "municipality": "ITUANGO" }, "geometry": { "type": "Point", "coordinates": [ -75.622790609914887, 7.253968438690672 ] } },
{ "type": "Feature", "properties": { "id": "5361034", "label": "5361034", "district": "FILADELFIA", "municipality": "ITUANGO" }, "geometry": { "type": "Point", "coordinates": [ -75.53627671919449, 7.227745017970995 ] } },
{ "type": "Feature", "properties": { "id": "5361087", "label": "5361087", "district": "SANTA ANA", "municipality": "ITUANGO" }, "geometry": { "type": "Point", "coordinates": [ -75.871333928769772, 7.203347080794879 ] } },
{ "type": "Feature", "properties": { "id": "5361063", "label": "5361063", "district": "LOS SAUCES", "municipality": "ITUANGO" }, "geometry": { "type": "Point", "coordinates": [ -75.843224603096516, 7.243719264918222 ] } },
{ "type": "Feature", "properties": { "id": "5361081", "label": "5361081", "district": "SAN ISIDRO", "municipality": "ITUANGO" }, "geometry": { "type": "Point", "coordinates": [ -75.834162564014719, 7.233297512634148 ] } },
{ "type": "Feature", "properties": { "id": "5361052", "label": "5361052", "district": "LA MIRANDA", "municipality": "ITUANGO" }, "geometry": { "type": "Point", "coordinates": [ -75.850629944008162, 7.220132994147602 ] } },
{ "type": "Feature", "properties": { "id": "5361090", "label": "5361090", "district": "TINAJAS", "municipality": "ITUANGO" }, "geometry": { "type": "Point", "coordinates": [ -75.606551545275323, 7.210146877342336 ] } },
{ "type": "Feature", "properties": { "id": "5361056", "label": "5361056", "district": "LA RICA", "municipality": "ITUANGO" }, "geometry": { "type": "Point", "coordinates": [ -75.556917443888892, 7.221998925117908 ] } },
{ "type": "Feature", "properties": { "id": "5361001", "label": "5361001", "district": "ALTO DE CENIZAS", "municipality": "ITUANGO" }, "geometry": { "type": "Point", "coordinates": [ -75.759172954072085, 7.222971482045462 ] } },
{ "type": "Feature", "properties": { "id": "5361073", "label": "5361073", "district": "PASCUITA", "municipality": "ITUANGO" }, "geometry": { "type": "Point", "coordinates": [ -75.651023449617654, 7.193509239001823 ] } },
{ "type": "Feature", "properties": { "id": "5361019", "label": "5361019", "district": "EL CEIBO", "municipality": "ITUANGO" }, "geometry": { "type": "Point", "coordinates": [ -75.600119785765983, 7.264072767080619 ] } },
{ "type": "Feature", "properties": { "id": "5543011", "label": "5543011", "district": "LA ARMENIA", "municipality": "PEQUE" }, "geometry": { "type": "Point", "coordinates": [ -75.897321952893819, 7.200503495399508 ] } },
{ "type": "Feature", "properties": { "id": "5361023", "label": "5361023", "district": "EL GUADUAL", "municipality": "ITUANGO" }, "geometry": { "type": "Point", "coordinates": [ -75.740963590868304, 7.237047855675182 ] } },
{ "type": "Feature", "properties": { "id": "5361061", "label": "5361061", "district": "LAS CUATRO", "municipality": "ITUANGO" }, "geometry": { "type": "Point", "coordinates": [ -75.815750033442754, 7.213921821613969 ] } },
{ "type": "Feature", "properties": { "id": "5361018", "label": "5361018", "district": "EL CEDRAL", "municipality": "ITUANGO" }, "geometry": { "type": "Point", "coordinates": [ -75.853354501655303, 7.190668619282198 ] } },
{ "type": "Feature", "properties": { "id": "5543036", "label": "5543036", "district": "VEGA DEL INGLES", "municipality": "PEQUE" }, "geometry": { "type": "Point", "coordinates": [ -75.89398178551545, 7.176895491942733 ] } },
{ "type": "Feature", "properties": { "id": "5361014", "label": "5361014", "district": "EL AMPARO", "municipality": "ITUANGO" }, "geometry": { "type": "Point", "coordinates": [ -75.836650347955597, 7.172549159030766 ] } },
{ "type": "Feature", "properties": { "id": "5361003", "label": "5361003", "district": "BAJO INGLES", "municipality": "ITUANGO" }, "geometry": { "type": "Point", "coordinates": [ -75.833046778153019, 7.20112536169679 ] } },
{ "type": "Feature", "properties": { "id": "5234007", "label": "5234007", "district": "BALDIOS NACIONALES", "municipality": "DABEIBA" }, "geometry": { "type": "Point", "coordinates": [ -76.070395489497358, 7.120841773624455 ] } },
{ "type": "Feature", "properties": { "id": "5543020", "label": "5543020", "district": "LOS CHORROS", "municipality": "PEQUE" }, "geometry": { "type": "Point", "coordinates": [ -75.921284930503532, 7.157538747206023 ] } },
{ "type": "Feature", "properties": { "id": "5361089", "label": "5361089", "district": "SINGO", "municipality": "ITUANGO" }, "geometry": { "type": "Point", "coordinates": [ -75.809262112602099, 7.183955176520255 ] } },
{ "type": "Feature", "properties": { "id": "5361082", "label": "5361082", "district": "LA SALA", "municipality": "ITUANGO" }, "geometry": { "type": "Point", "coordinates": [ -75.866814800190213, 7.138889138848279 ] } },
{ "type": "Feature", "properties": { "id": "5361009", "label": "5361009", "district": "CANOAS", "municipality": "ITUANGO" }, "geometry": { "type": "Point", "coordinates": [ -75.827380902167505, 7.143509696316424 ] } },
{ "type": "Feature", "properties": { "id": "5361050", "label": "5361050", "district": "LA HUNDIDA", "municipality": "ITUANGO" }, "geometry": { "type": "Point", "coordinates": [ -75.802179155384422, 7.149950440116555 ] } },
{ "type": "Feature", "properties": { "id": "5361031", "label": "5361031", "district": "EL TINTO", "municipality": "ITUANGO" }, "geometry": { "type": "Point", "coordinates": [ -75.805931007445025, 7.13519985882655 ] } },
{ "type": "Feature", "properties": { "id": "5361013", "label": "5361013", "district": "CORTADERAL", "municipality": "ITUANGO" }, "geometry": { "type": "Point", "coordinates": [ -75.756238730119605, 7.123312738552848 ] } },
{ "type": "Feature", "properties": { "id": "5234017", "label": "5234017", "district": "CHAMUSCADOS", "municipality": "DABEIBA" }, "geometry": { "type": "Point", "coordinates": [ -76.064797148075556, 7.125460806201813 ] } },
{ "type": "Feature", "properties": { "id": "5361074", "label": "5361074", "district": "PEÑA", "municipality": "ITUANGO" }, "geometry": { "type": "Point", "coordinates": [ -75.849766543402012, 7.119726730115743 ] } },
{ "type": "Feature", "properties": { "id": "5543025", "label": "5543025", "district": "PORTACHUELO", "municipality": "PEQUE" }, "geometry": { "type": "Point", "coordinates": [ -75.925520168106431, 7.11996494675135 ] } },
{ "type": "Feature", "properties": { "id": "5234019", "label": "5234019", "district": "CHEVER", "municipality": "DABEIBA" }, "geometry": { "type": "Point", "coordinates": [ -76.325184828396132, 7.126849208431262 ] } },
{ "type": "Feature", "properties": { "id": "5234096", "label": "5234096", "district": "TASIDO", "municipality": "DABEIBA" }, "geometry": { "type": "Point", "coordinates": [ -76.219018463583055, 7.123777359935497 ] } },
{ "type": "Feature", "properties": { "id": "5361004", "label": "5361004", "district": "BUENAVISTA", "municipality": "ITUANGO" }, "geometry": { "type": "Point", "coordinates": [ -75.792611134702739, 7.161886541752339 ] } },
{ "type": "Feature", "properties": { "id": "5361010", "label": "5361010", "district": "CHAPINERO TURCO", "municipality": "ITUANGO" }, "geometry": { "type": "Point", "coordinates": [ -75.75346250966021, 7.177245907081354 ] } },
{ "type": "Feature", "properties": { "id": "5234006", "label": "5234006", "district": "ARGELIA", "municipality": "DABEIBA" }, "geometry": { "type": "Point", "coordinates": [ -76.09331780992099, 7.091193090029695 ] } },
{ "type": "Feature", "properties": { "id": "5234077", "label": "5234077", "district": "LLANON", "municipality": "DABEIBA" }, "geometry": { "type": "Point", "coordinates": [ -76.027834550518506, 7.131639671507136 ] } },
{ "type": "Feature", "properties": { "id": "5361026", "label": "5361026", "district": "EL NARANJO", "municipality": "ITUANGO" }, "geometry": { "type": "Point", "coordinates": [ -75.774713061032173, 7.164981663382683 ] } },
{ "type": "Feature", "properties": { "id": "5361062", "label": "5361062", "district": "LOS GALGOS", "municipality": "ITUANGO" }, "geometry": { "type": "Point", "coordinates": [ -75.708804605330286, 7.138876502762654 ] } },
{ "type": "Feature", "properties": { "id": "5234072", "label": "5234072", "district": "LA SOLEDAD", "municipality": "DABEIBA" }, "geometry": { "type": "Point", "coordinates": [ -76.316196608119029, 7.122662651295519 ] } },
{ "type": "Feature", "properties": { "id": "5543023", "label": "5543023", "district": "MONTARRON", "municipality": "PEQUE" }, "geometry": { "type": "Point", "coordinates": [ -75.840606681338386, 7.07477601205979 ] } },
{ "type": "Feature", "properties": { "id": "5361045", "label": "5361045", "district": "LA FLORIDA", "municipality": "ITUANGO" }, "geometry": { "type": "Point", "coordinates": [ -75.811249856199623, 7.107744991062535 ] } },
{ "type": "Feature", "properties": { "id": "5854031", "label": "5854031", "district": "SANTA ANA CHORRILLOS", "municipality": "VALDIVIA" }, "geometry": { "type": "Point", "coordinates": [ -75.475271411457541, 7.152093952406743 ] } },
{ "type": "Feature", "properties": { "id": "5107004", "label": "5107004", "district": "CAMPO ALEGRE", "municipality": "BRICEÑO" }, "geometry": { "type": "Point", "coordinates": [ -75.501448207207432, 7.148026384285748 ] } },
{ "type": "Feature", "properties": { "id": "5234090", "label": "5234090", "district": "QUIPARADOCITO", "municipality": "DABEIBA" }, "geometry": { "type": "Point", "coordinates": [ -76.304698124960623, 7.094598162001557 ] } },
{ "type": "Feature", "properties": { "id": "5234075", "label": "5234075", "district": "LLANO GRANDE", "municipality": "DABEIBA" }, "geometry": { "type": "Point", "coordinates": [ -76.244607804438971, 7.083282975869191 ] } },
{ "type": "Feature", "properties": { "id": "5234068", "label": "5234068", "district": "LA MESA", "municipality": "DABEIBA" }, "geometry": { "type": "Point", "coordinates": [ -76.225044543623312, 7.091504191967833 ] } },
{ "type": "Feature", "properties": { "id": "5234097", "label": "5234097", "district": "TOCUNAL", "municipality": "DABEIBA" }, "geometry": { "type": "Point", "coordinates": [ -76.13005854803896, 7.088017044274285 ] } },
{ "type": "Feature", "properties": { "id": "5234031", "label": "5234031", "district": "CUCHILLON", "municipality": "DABEIBA" }, "geometry": { "type": "Point", "coordinates": [ -76.055950417730756, 7.09322280741194 ] } },
{ "type": "Feature", "properties": { "id": "5361037", "label": "5361037", "district": "GUACHARAQUERO", "municipality": "ITUANGO" }, "geometry": { "type": "Point", "coordinates": [ -75.787708626040597, 7.11601055432908 ] } },
{ "type": "Feature", "properties": { "id": "5107037", "label": "5107037", "district": "TRAVESIAS", "municipality": "BRICEÑO" }, "geometry": { "type": "Point", "coordinates": [ -75.575586515751141, 7.140252173051574 ] } },
{ "type": "Feature", "properties": { "id": "5107013", "label": "5107013", "district": "EL RESPALDO", "municipality": "BRICEÑO" }, "geometry": { "type": "Point", "coordinates": [ -75.559720047040557, 7.125696177801336 ] } },
{ "type": "Feature", "properties": { "id": "5234074", "label": "5234074", "district": "LLANO GORDO", "municipality": "DABEIBA" }, "geometry": { "type": "Point", "coordinates": [ -76.285188304019854, 7.079150463843273 ] } },
{ "type": "Feature", "properties": { "id": "5107026", "label": "5107026", "district": "LOS NARANJOS", "municipality": "BRICEÑO" }, "geometry": { "type": "Point", "coordinates": [ -75.578828241573532, 7.117855585777166 ] } },
{ "type": "Feature", "properties": { "id": "5234069", "label": "5234069", "district": "LA MONTANITA", "municipality": "DABEIBA" }, "geometry": { "type": "Point", "coordinates": [ -76.219110466122856, 7.059732530228035 ] } },
{ "type": "Feature", "properties": { "id": "5234034", "label": "5234034", "district": "EL AGUILA", "municipality": "DABEIBA" }, "geometry": { "type": "Point", "coordinates": [ -76.180818124926958, 7.091892802076265 ] } },
{ "type": "Feature", "properties": { "id": "5543021", "label": "5543021", "district": "LOS LLANOS", "municipality": "PEQUE" }, "geometry": { "type": "Point", "coordinates": [ -75.925516261192641, 7.075599157819737 ] } },
{ "type": "Feature", "properties": { "id": "5543006", "label": "5543006", "district": "EL PARAMO", "municipality": "PEQUE" }, "geometry": { "type": "Point", "coordinates": [ -75.89555114596898, 7.089520829081375 ] } },
{ "type": "Feature", "properties": { "id": "5234089", "label": "5234089", "district": "QUIPARADO", "municipality": "DABEIBA" }, "geometry": { "type": "Point", "coordinates": [ -76.343506103953871, 7.07393031168433 ] } },
{ "type": "Feature", "properties": { "id": "5234035", "label": "5234035", "district": "EL BALSO", "municipality": "DABEIBA" }, "geometry": { "type": "Point", "coordinates": [ -76.063634823434796, 7.072447803122924 ] } },
{ "type": "Feature", "properties": { "id": "5234042", "label": "5234042", "district": "EL JARDIN", "municipality": "DABEIBA" }, "geometry": { "type": "Point", "coordinates": [ -76.063327841606664, 7.053672562436284 ] } },
{ "type": "Feature", "properties": { "id": "5543033", "label": "5543033", "district": "SAN PABLO", "municipality": "PEQUE" }, "geometry": { "type": "Point", "coordinates": [ -75.879244163696569, 7.068789431037094 ] } },
{ "type": "Feature", "properties": { "id": "5107011", "label": "5107011", "district": "EL PESCADO", "municipality": "BRICEÑO" }, "geometry": { "type": "Point", "coordinates": [ -75.591000655205221, 7.093797411623071 ] } },
{ "type": "Feature", "properties": { "id": "5107016", "label": "5107016", "district": "LA AMERICA", "municipality": "BRICEÑO" }, "geometry": { "type": "Point", "coordinates": [ -75.596391409130206, 7.110075454303262 ] } },
{ "type": "Feature", "properties": { "id": "5107020", "label": "5107020", "district": "LA MESETA", "municipality": "BRICEÑO" }, "geometry": { "type": "Point", "coordinates": [ -75.562268886723331, 7.094502582953134 ] } },
{ "type": "Feature", "properties": { "id": "5887001", "label": "5887001", "district": "AGUACATAL", "municipality": "YARUMAL" }, "geometry": { "type": "Point", "coordinates": [ -75.405754406826361, 7.098827591357879 ] } },
{ "type": "Feature", "properties": { "id": "5854003", "label": "5854003", "district": "CHORROS BLANCOS", "municipality": "VALDIVIA" }, "geometry": { "type": "Point", "coordinates": [ -75.440178118197693, 7.110931625508496 ] } },
{ "type": "Feature", "properties": { "id": "5234010", "label": "5234010", "district": "BARRANCON ATADO", "municipality": "DABEIBA" }, "geometry": { "type": "Point", "coordinates": [ -76.265832120254174, 7.067287631067463 ] } },
{ "type": "Feature", "properties": { "id": "5234032", "label": "5234032", "district": "CULANTRILLALES", "municipality": "DABEIBA" }, "geometry": { "type": "Point", "coordinates": [ -76.171804297823329, 7.049963905790794 ] } },
{ "type": "Feature", "properties": { "id": "5543009", "label": "5543009", "district": "GUAYABAL - PEÑA", "municipality": "PEQUE" }, "geometry": { "type": "Point", "coordinates": [ -75.841579235921287, 7.09123066531344 ] } },
{ "type": "Feature", "properties": { "id": "5887051", "label": "5887051", "district": "VENTANAS", "municipality": "YARUMAL" }, "geometry": { "type": "Point", "coordinates": [ -75.443390782685029, 7.066825871129764 ] } },
{ "type": "Feature", "properties": { "id": "5234051", "label": "5234051", "district": "EL RETIRO", "municipality": "DABEIBA" }, "geometry": { "type": "Point", "coordinates": [ -76.24616587391499, 7.058957543674083 ] } },
{ "type": "Feature", "properties": { "id": "5234023", "label": "5234023", "district": "CHINO DE PLAYONES", "municipality": "DABEIBA" }, "geometry": { "type": "Point", "coordinates": [ -76.198492627054861, 7.065695294493954 ] } },
{ "type": "Feature", "properties": { "id": "5234048", "label": "5234048", "district": "EL PARAMO", "municipality": "DABEIBA" }, "geometry": { "type": "Point", "coordinates": [ -76.152886066435556, 7.049651503892878 ] } },
{ "type": "Feature", "properties": { "id": "5543031", "label": "5543031", "district": "SAN MATEO", "municipality": "PEQUE" }, "geometry": { "type": "Point", "coordinates": [ -75.959731132798339, 7.050906032864013 ] } },
{ "type": "Feature", "properties": { "id": "5107002", "label": "5107002", "district": "BERLIN", "municipality": "BRICEÑO" }, "geometry": { "type": "Point", "coordinates": [ -75.627707910266992, 7.101161105742588 ] } },
{ "type": "Feature", "properties": { "id": "5107003", "label": "5107003", "district": "BUENA VISTA", "municipality": "BRICEÑO" }, "geometry": { "type": "Point", "coordinates": [ -75.638732854427687, 7.058074618100874 ] } },
{ "type": "Feature", "properties": { "id": "5107035", "label": "5107035", "district": "SAN PEDRO", "municipality": "BRICEÑO" }, "geometry": { "type": "Point", "coordinates": [ -75.625207356009952, 7.089651338433066 ] } },
{ "type": "Feature", "properties": { "id": "5107029", "label": "5107029", "district": "OREJON", "municipality": "BRICEÑO" }, "geometry": { "type": "Point", "coordinates": [ -75.650191024108253, 7.096680910483047 ] } },
{ "type": "Feature", "properties": { "id": "5107021", "label": "5107021", "district": "LA MINA", "municipality": "BRICEÑO" }, "geometry": { "type": "Point", "coordinates": [ -75.611100557131607, 7.092112390138459 ] } },
{ "type": "Feature", "properties": { "id": "5107008", "label": "5107008", "district": "EL CEDRAL", "municipality": "BRICEÑO" }, "geometry": { "type": "Point", "coordinates": [ -75.57416605799132, 7.046493461223829 ] } },
{ "type": "Feature", "properties": { "id": "5107018", "label": "5107018", "district": "LA CORREA", "municipality": "BRICEÑO" }, "geometry": { "type": "Point", "coordinates": [ -75.570851760050999, 7.077274877865249 ] } },
{ "type": "Feature", "properties": { "id": "5854029", "label": "5854029", "district": "SAN FERMIN", "municipality": "VALDIVIA" }, "geometry": { "type": "Point", "coordinates": [ -75.476996041327226, 7.092907605656532 ] } },
{ "type": "Feature", "properties": { "id": "5107036", "label": "5107036", "district": "SANTA ANA", "municipality": "BRICEÑO" }, "geometry": { "type": "Point", "coordinates": [ -75.504556212426962, 7.086199056641576 ] } },
{ "type": "Feature", "properties": { "id": "5887008", "label": "5887008", "district": "CORCOVADO", "municipality": "YARUMAL" }, "geometry": { "type": "Point", "coordinates": [ -75.409364577683618, 7.071402888337738 ] } },
{ "type": "Feature", "properties": { "id": "5234013", "label": "5234013", "district": "CAÑAVERALES", "municipality": "DABEIBA" }, "geometry": { "type": "Point", "coordinates": [ -76.189630676421274, 7.047542764515372 ] } },
{ "type": "Feature", "properties": { "id": "5234009", "label": "5234009", "district": "BARRANCON", "municipality": "DABEIBA" }, "geometry": { "type": "Point", "coordinates": [ -76.034756638784145, 7.034396547004588 ] } },
{ "type": "Feature", "properties": { "id": "5543013", "label": "5543013", "district": "LA GUADUA", "municipality": "PEQUE" }, "geometry": { "type": "Point", "coordinates": [ -75.848354892554752, 7.043970957797266 ] } },
{ "type": "Feature", "properties": { "id": "5887022", "label": "5887022", "district": "LA CEJA", "municipality": "YARUMAL" }, "geometry": { "type": "Point", "coordinates": [ -75.607479770370546, 7.049843219342874 ] } },
{ "type": "Feature", "properties": { "id": "5887003", "label": "5887003", "district": "CEDEÑO", "municipality": "YARUMAL" }, "geometry": { "type": "Point", "coordinates": [ -75.358583421132849, 7.073787609645422 ] } },
{ "type": "Feature", "properties": { "id": "5887021", "label": "5887021", "district": "LA CAROLINA", "municipality": "YARUMAL" }, "geometry": { "type": "Point", "coordinates": [ -75.380884825961544, 7.103836597881347 ] } },
{ "type": "Feature", "properties": { "id": "5887023", "label": "5887023", "district": "LA CONSPIRACION", "municipality": "YARUMAL" }, "geometry": { "type": "Point", "coordinates": [ -75.367355113767132, 7.130977671248401 ] } },
{ "type": "Feature", "properties": { "id": "5234087", "label": "5234087", "district": "PLAYONES", "municipality": "DABEIBA" }, "geometry": { "type": "Point", "coordinates": [ -76.211965787029413, 7.037694578909596 ] } },
{ "type": "Feature", "properties": { "id": "5234039", "label": "5234039", "district": "EL CORCOVADO", "municipality": "DABEIBA" }, "geometry": { "type": "Point", "coordinates": [ -75.990370656682984, 7.048060445366829 ] } },
{ "type": "Feature", "properties": { "id": "5543007", "label": "5543007", "district": "EL POPAL", "municipality": "PEQUE" }, "geometry": { "type": "Point", "coordinates": [ -75.895529295858623, 7.035758332223728 ] } },
{ "type": "Feature", "properties": { "id": "5543005", "label": "5543005", "district": "EL AURA", "municipality": "PEQUE" }, "geometry": { "type": "Point", "coordinates": [ -75.871456608011385, 7.027472477278431 ] } },
{ "type": "Feature", "properties": { "id": "5543019", "label": "5543019", "district": "LOMITAS", "municipality": "PEQUE" }, "geometry": { "type": "Point", "coordinates": [ -75.811978260878817, 7.070686025114929 ] } },
{ "type": "Feature", "properties": { "id": "5107001", "label": "5107001", "district": "ALTO EL CHIRI", "municipality": "BRICEÑO" }, "geometry": { "type": "Point", "coordinates": [ -75.668647785977072, 7.076275002223806 ] } },
{ "type": "Feature", "properties": { "id": "5107033", "label": "5107033", "district": "SAN EPIFANIO", "municipality": "BRICEÑO" }, "geometry": { "type": "Point", "coordinates": [ -75.502694381735921, 7.061667375117447 ] } },
{ "type": "Feature", "properties": { "id": "5887020", "label": "5887020", "district": "LA CANDELARIA", "municipality": "YARUMAL" }, "geometry": { "type": "Point", "coordinates": [ -75.456870168100693, 7.04208792718908 ] } },
{ "type": "Feature", "properties": { "id": "5887050", "label": "5887050", "district": "TOBON", "municipality": "YARUMAL" }, "geometry": { "type": "Point", "coordinates": [ -75.433340353356826, 7.030060260508676 ] } },
{ "type": "Feature", "properties": { "id": "5887010", "label": "5887010", "district": "EL HORMIGUERO", "municipality": "YARUMAL" }, "geometry": { "type": "Point", "coordinates": [ -75.37699139314914, 7.04354013329725 ] } },
{ "type": "Feature", "properties": { "id": "5234062", "label": "5234062", "district": "LA CHIQUITA", "municipality": "DABEIBA" }, "geometry": { "type": "Point", "coordinates": [ -76.09391499696379, 7.027065272781104 ] } },
{ "type": "Feature", "properties": { "id": "5543008", "label": "5543008", "district": "GUAYABAL", "municipality": "PEQUE" }, "geometry": { "type": "Point", "coordinates": [ -75.927671333700005, 7.037107921549893 ] } },
{ "type": "Feature", "properties": { "id": "5543012", "label": "5543012", "district": "LA BASTILLA", "municipality": "PEQUE" }, "geometry": { "type": "Point", "coordinates": [ -75.8087524949309, 7.036618369416535 ] } },
{ "type": "Feature", "properties": { "id": "5107007", "label": "5107007", "district": "EL ANIME", "municipality": "BRICEÑO" }, "geometry": { "type": "Point", "coordinates": [ -75.523752645899336, 7.023223935954007 ] } },
{ "type": "Feature", "properties": { "id": "5887045", "label": "5887045", "district": "SAN ROQUE", "municipality": "YARUMAL" }, "geometry": { "type": "Point", "coordinates": [ -75.48781492296267, 7.011924168428854 ] } },
{ "type": "Feature", "properties": { "id": "5543014", "label": "5543014", "district": "LAS FALDAS", "municipality": "PEQUE" }, "geometry": { "type": "Point", "coordinates": [ -75.905787228064895, 7.046120476680461 ] } },
{ "type": "Feature", "properties": { "id": "5887035", "label": "5887035", "district": "LAS CRUCES", "municipality": "YARUMAL" }, "geometry": { "type": "Point", "coordinates": [ -75.604413793509991, 7.031676897899843 ] } },
{ "type": "Feature", "properties": { "id": "5107027", "label": "5107027", "district": "MORAVIA", "municipality": "BRICEÑO" }, "geometry": { "type": "Point", "coordinates": [ -75.53984341088848, 7.066365010632977 ] } },
{ "type": "Feature", "properties": { "id": "5887039", "label": "5887039", "district": "MINA VIEJA", "municipality": "YARUMAL" }, "geometry": { "type": "Point", "coordinates": [ -75.438041534550237, 6.9911807251327 ] } },
{ "type": "Feature", "properties": { "id": "5887006", "label": "5887006", "district": "CHORROS BLANCOS ARRIBA", "municipality": "YARUMAL" }, "geometry": { "type": "Point", "coordinates": [ -75.400245063210107, 7.007324351604973 ] } },
{ "type": "Feature", "properties": { "id": "5234076", "label": "5234076", "district": "EL GRANDE", "municipality": "DABEIBA" }, "geometry": { "type": "Point", "coordinates": [ -76.118902202787552, 7.029430963426922 ] } },
{ "type": "Feature", "properties": { "id": "5234071", "label": "5234071", "district": "LA PALOMA", "municipality": "DABEIBA" }, "geometry": { "type": "Point", "coordinates": [ -76.084406652909891, 7.018342096942325 ] } },
{ "type": "Feature", "properties": { "id": "5234016", "label": "5234016", "district": "CHACHAFRUTAL", "municipality": "DABEIBA" }, "geometry": { "type": "Point", "coordinates": [ -76.10673858494539, 7.044219271567163 ] } },
{ "type": "Feature", "properties": { "id": "5234053", "label": "5234053", "district": "EL TIGRE", "municipality": "DABEIBA" }, "geometry": { "type": "Point", "coordinates": [ -76.047126152472913, 7.006587162423488 ] } },
{ "type": "Feature", "properties": { "id": "5543035", "label": "5543035", "district": "TOLDAS", "municipality": "PEQUE" }, "geometry": { "type": "Point", "coordinates": [ -75.948365380138441, 7.021211014139896 ] } },
{ "type": "Feature", "properties": { "id": "5543017", "label": "5543017", "district": "LLANO DEL PUEBLO", "municipality": "PEQUE" }, "geometry": { "type": "Point", "coordinates": [ -75.929548912970816, 7.017830984900273 ] } },
{ "type": "Feature", "properties": { "id": "5819005", "label": "5819005", "district": "EL MORAL - EL TORO", "municipality": "TOLEDO" }, "geometry": { "type": "Point", "coordinates": [ -75.728450759901833, 7.044620800909653 ] } },
{ "type": "Feature", "properties": { "id": "5819010", "label": "5819010", "district": "LA CASCARELA", "municipality": "TOLEDO" }, "geometry": { "type": "Point", "coordinates": [ -75.705460850618877, 7.061685627953772 ] } },
{ "type": "Feature", "properties": { "id": "5887028", "label": "5887028", "district": "LA LOMA", "municipality": "YARUMAL" }, "geometry": { "type": "Point", "coordinates": [ -75.632802118166481, 7.025859959582826 ] } },
{ "type": "Feature", "properties": { "id": "5887042", "label": "5887042", "district": "RÍO ABAJO", "municipality": "YARUMAL" }, "geometry": { "type": "Point", "coordinates": [ -75.330210309098305, 7.052825586518189 ] } },
{ "type": "Feature", "properties": { "id": "5887029", "label": "5887029", "district": "LA PAILITA", "municipality": "YARUMAL" }, "geometry": { "type": "Point", "coordinates": [ -75.336094348720636, 7.023334126089795 ] } },
{ "type": "Feature", "properties": { "id": "5887033", "label": "5887033", "district": "LA TORRE", "municipality": "YARUMAL" }, "geometry": { "type": "Point", "coordinates": [ -75.353690281209552, 7.001379165233523 ] } },
{ "type": "Feature", "properties": { "id": "5887019", "label": "5887019", "district": "LA BRAMADORA", "municipality": "YARUMAL" }, "geometry": { "type": "Point", "coordinates": [ -75.375315598628887, 7.007448142372888 ] } },
{ "type": "Feature", "properties": { "id": "5040017", "label": "5040017", "district": "EL ZAFIRO", "municipality": "ANORÍ" }, "geometry": { "type": "Point", "coordinates": [ -75.096805435694961, 7.036593129508397 ] } },
{ "type": "Feature", "properties": { "id": "5040021", "label": "5040021", "district": "LA FATIMA", "municipality": "ANORÍ" }, "geometry": { "type": "Point", "coordinates": [ -75.123611775045021, 7.021762356722967 ] } },
{ "type": "Feature", "properties": { "id": "5234050", "label": "5234050", "district": "EL PLAN", "municipality": "DABEIBA" }, "geometry": { "type": "Point", "coordinates": [ -76.004687596882789, 7.009274117250377 ] } },
{ "type": "Feature", "properties": { "id": "5819011", "label": "5819011", "district": "LA FLORIDA", "municipality": "TOLEDO" }, "geometry": { "type": "Point", "coordinates": [ -75.708970868020728, 7.0258973567087 ] } },
{ "type": "Feature", "properties": { "id": "5819001", "label": "5819001", "district": "BARRANCAS", "municipality": "TOLEDO" }, "geometry": { "type": "Point", "coordinates": [ -75.690969686571279, 7.029419529962186 ] } },
{ "type": "Feature", "properties": { "id": "5819014", "label": "5819014", "district": "MIRAFLORES", "municipality": "TOLEDO" }, "geometry": { "type": "Point", "coordinates": [ -75.677691568489905, 7.017660786619245 ] } },
{ "type": "Feature", "properties": { "id": "5887011", "label": "5887011", "district": "EL LLANO - YOLOMBAL", "municipality": "YARUMAL" }, "geometry": { "type": "Point", "coordinates": [ -75.599381880026797, 7.018454115374151 ] } },
{ "type": "Feature", "properties": { "id": "5887025", "label": "5887025", "district": "LA ESMERALDA", "municipality": "YARUMAL" }, "geometry": { "type": "Point", "coordinates": [ -75.573743506963453, 6.965861459892893 ] } },
{ "type": "Feature", "properties": { "id": "5887015", "label": "5887015", "district": "ESPIRITU SANTO", "municipality": "YARUMAL" }, "geometry": { "type": "Point", "coordinates": [ -75.52358555610212, 6.968774928658078 ] } },
{ "type": "Feature", "properties": { "id": "5234084", "label": "5234084", "district": "PALONEGRO", "municipality": "DABEIBA" }, "geometry": { "type": "Point", "coordinates": [ -76.0765200511226, 7.005203375358878 ] } },
{ "type": "Feature", "properties": { "id": "5234001", "label": "5234001", "district": "AGUALINDA", "municipality": "DABEIBA" }, "geometry": { "type": "Point", "coordinates": [ -76.053734848327181, 6.994890813914882 ] } },
{ "type": "Feature", "properties": { "id": "5234067", "label": "5234067", "district": "LA FORTUNA", "municipality": "DABEIBA" }, "geometry": { "type": "Point", "coordinates": [ -76.027854532498509, 6.985525859165415 ] } },
{ "type": "Feature", "properties": { "id": "5543027", "label": "5543027", "district": "ROMERAL - CHAMIZO", "municipality": "PEQUE" }, "geometry": { "type": "Point", "coordinates": [ -75.961186786850632, 6.996492417754686 ] } },
{ "type": "Feature", "properties": { "id": "5887041", "label": "5887041", "district": "OCHALI", "municipality": "YARUMAL" }, "geometry": { "type": "Point", "coordinates": [ -75.59734759013341, 6.997802514620632 ] } },
{ "type": "Feature", "properties": { "id": "5887004", "label": "5887004", "district": "CHORROS BLANCOS", "municipality": "YARUMAL" }, "geometry": { "type": "Point", "coordinates": [ -75.595041235504993, 7.009602820309069 ] } },
{ "type": "Feature", "properties": { "id": "5134007", "label": "5134007", "district": "LOS CHORROS", "municipality": "CAMPAMENTO" }, "geometry": { "type": "Point", "coordinates": [ -75.311499222557543, 6.994966150094088 ] } },
{ "type": "Feature", "properties": { "id": "5134018", "label": "5134018", "district": "QUEBRADA NEGRA", "municipality": "CAMPAMENTO" }, "geometry": { "type": "Point", "coordinates": [ -75.293101773357549, 7.022910987930506 ] } },
{ "type": "Feature", "properties": { "id": "5842033", "label": "5842033", "district": "RETIRO", "municipality": "URAMITA" }, "geometry": { "type": "Point", "coordinates": [ -75.997288362455208, 6.965053680462677 ] } },
{ "type": "Feature", "properties": { "id": "5543015", "label": "5543015", "district": "LAS FALDAS DEL CAFÉ", "municipality": "PEQUE" }, "geometry": { "type": "Point", "coordinates": [ -75.938001494109116, 6.988577511581735 ] } },
{ "type": "Feature", "properties": { "id": "5819015", "label": "5819015", "district": "PALO BLANCO", "municipality": "TOLEDO" }, "geometry": { "type": "Point", "coordinates": [ -75.730354833265054, 7.010208391729138 ] } },
{ "type": "Feature", "properties": { "id": "5819009", "label": "5819009", "district": "HELECHALES", "municipality": "TOLEDO" }, "geometry": { "type": "Point", "coordinates": [ -75.726365303526691, 6.98546332918455 ] } },
{ "type": "Feature", "properties": { "id": "5819008", "label": "5819008", "district": "GUAYABAL", "municipality": "TOLEDO" }, "geometry": { "type": "Point", "coordinates": [ -75.723290416182749, 6.960831306943689 ] } },
{ "type": "Feature", "properties": { "id": "5819013", "label": "5819013", "district": "MENA", "municipality": "TOLEDO" }, "geometry": { "type": "Point", "coordinates": [ -75.702888858373242, 7.003604718402143 ] } },
{ "type": "Feature", "properties": { "id": "5134001", "label": "5134001", "district": "PLAN DE LA ROSA", "municipality": "CAMPAMENTO" }, "geometry": { "type": "Point", "coordinates": [ -75.283567043092319, 7.010637372579174 ] } },
{ "type": "Feature", "properties": { "id": "5040015", "label": "5040015", "district": "EL RETIRO", "municipality": "ANORÍ" }, "geometry": { "type": "Point", "coordinates": [ -75.107264343415096, 6.979147941631783 ] } },
{ "type": "Feature", "properties": { "id": "5040043", "label": "5040043", "district": "ROBLE ARRIBA", "municipality": "ANORÍ" }, "geometry": { "type": "Point", "coordinates": [ -75.148230183038237, 6.99144795503928 ] } },
{ "type": "Feature", "properties": { "id": "5234070", "label": "5234070", "district": "LA MONTAÑA", "municipality": "DABEIBA" }, "geometry": { "type": "Point", "coordinates": [ -76.15241139357417, 7.008690942791944 ] } },
{ "type": "Feature", "properties": { "id": "5234055", "label": "5234055", "district": "FILO DE LA CRUZ", "municipality": "DABEIBA" }, "geometry": { "type": "Point", "coordinates": [ -76.139120699193171, 7.005581574455818 ] } },
{ "type": "Feature", "properties": { "id": "5234018", "label": "5234018", "district": "CHARRASCAL", "municipality": "DABEIBA" }, "geometry": { "type": "Point", "coordinates": [ -76.13259954753542, 6.994138910124439 ] } },
{ "type": "Feature", "properties": { "id": "5234046", "label": "5234046", "district": "EL MANGO", "municipality": "DABEIBA" }, "geometry": { "type": "Point", "coordinates": [ -76.103444755018884, 7.000709231362228 ] } },
{ "type": "Feature", "properties": { "id": "5234027", "label": "5234027", "district": "CHUPADERO", "municipality": "DABEIBA" }, "geometry": { "type": "Point", "coordinates": [ -76.09781636193577, 6.986858668647614 ] } },
{ "type": "Feature", "properties": { "id": "5234088", "label": "5234088", "district": "PUEBLECITO", "municipality": "DABEIBA" }, "geometry": { "type": "Point", "coordinates": [ -76.088119923901843, 6.991814761154565 ] } },
{ "type": "Feature", "properties": { "id": "5234052", "label": "5234052", "district": "EL TERCO", "municipality": "DABEIBA" }, "geometry": { "type": "Point", "coordinates": [ -76.078170257562775, 6.98257597993981 ] } },
{ "type": "Feature", "properties": { "id": "5234044", "label": "5234044", "district": "EL JORDAN ALTO", "municipality": "DABEIBA" }, "geometry": { "type": "Point", "coordinates": [ -76.072214939347944, 6.970662580763235 ] } },
{ "type": "Feature", "properties": { "id": "5543034", "label": "5543034", "district": "SANTA AGUEDA", "municipality": "PEQUE" }, "geometry": { "type": "Point", "coordinates": [ -75.921519841124166, 6.984611305111435 ] } },
{ "type": "Feature", "properties": { "id": "5887007", "label": "5887007", "district": "CHORROS BLANCOS DEL MEDIO", "municipality": "YARUMAL" }, "geometry": { "type": "Point", "coordinates": [ -75.379954473575211, 6.977031230105297 ] } },
{ "type": "Feature", "properties": { "id": "5134022", "label": "5134022", "district": "LA COLMENA", "municipality": "CAMPAMENTO" }, "geometry": { "type": "Point", "coordinates": [ -75.289478810073533, 6.995904434927398 ] } },
{ "type": "Feature", "properties": { "id": "5234043", "label": "5234043", "district": "EL JILGUERO", "municipality": "DABEIBA" }, "geometry": { "type": "Point", "coordinates": [ -76.173707222804055, 6.995914389482208 ] } },
{ "type": "Feature", "properties": { "id": "5234008", "label": "5234008", "district": "BARRANCAS", "municipality": "DABEIBA" }, "geometry": { "type": "Point", "coordinates": [ -76.188541474708927, 6.983147550849384 ] } },
{ "type": "Feature", "properties": { "id": "5842009", "label": "5842009", "district": "CHACHA FRUTAL", "municipality": "URAMITA" }, "geometry": { "type": "Point", "coordinates": [ -76.160139545802679, 6.95725127023134 ] } },
{ "type": "Feature", "properties": { "id": "5842007", "label": "5842007", "district": "CARACOLAL", "municipality": "URAMITA" }, "geometry": { "type": "Point", "coordinates": [ -76.169373295461554, 6.942944269749538 ] } },
{ "type": "Feature", "properties": { "id": "5234092", "label": "5234092", "district": "SAN IGNACIO", "municipality": "DABEIBA" }, "geometry": { "type": "Point", "coordinates": [ -76.163813615103535, 7.004675790017157 ] } },
{ "type": "Feature", "properties": { "id": "5234091", "label": "5234091", "district": "SAN AGUSTIN", "municipality": "DABEIBA" }, "geometry": { "type": "Point", "coordinates": [ -76.120110174421214, 6.981227106446244 ] } },
{ "type": "Feature", "properties": { "id": "5234037", "label": "5234037", "district": "EL CALICHE II", "municipality": "DABEIBA" }, "geometry": { "type": "Point", "coordinates": [ -76.058294349647284, 6.984144549520151 ] } },
{ "type": "Feature", "properties": { "id": "5234060", "label": "5234060", "district": "LA ARMENIA", "municipality": "DABEIBA" }, "geometry": { "type": "Point", "coordinates": [ -76.050018582105338, 6.961250673476226 ] } },
{ "type": "Feature", "properties": { "id": "5138052", "label": "5138052", "district": "SAN JULIAN", "municipality": "CAÑASGORDAS" }, "geometry": { "type": "Point", "coordinates": [ -75.982572188415617, 6.937348313042326 ] } },
{ "type": "Feature", "properties": { "id": "5543032", "label": "5543032", "district": "SAN MIGUEL", "municipality": "PEQUE" }, "geometry": { "type": "Point", "coordinates": [ -75.906938915166435, 6.991726947979797 ] } },
{ "type": "Feature", "properties": { "id": "5543010", "label": "5543010", "district": "JERIGUA", "municipality": "PEQUE" }, "geometry": { "type": "Point", "coordinates": [ -75.892982911748163, 6.998958056155403 ] } },
{ "type": "Feature", "properties": { "id": "5543028", "label": "5543028", "district": "SAN JUAN DE RENEGADO", "municipality": "PEQUE" }, "geometry": { "type": "Point", "coordinates": [ -75.879495802593624, 6.988466058874561 ] } },
{ "type": "Feature", "properties": { "id": "5543024", "label": "5543024", "district": "NUEVA LLANADA", "municipality": "PEQUE" }, "geometry": { "type": "Point", "coordinates": [ -75.847997456580003, 7.002749647952826 ] } },
{ "type": "Feature", "properties": { "id": "5543026", "label": "5543026", "district": "RENEGADO - VALLE", "municipality": "PEQUE" }, "geometry": { "type": "Point", "coordinates": [ -75.841991489507436, 6.976459586693246 ] } },
{ "type": "Feature", "properties": { "id": "5819012", "label": "5819012", "district": "LA LINDA", "municipality": "TOLEDO" }, "geometry": { "type": "Point", "coordinates": [ -75.702429733563591, 6.978385461332306 ] } },
{ "type": "Feature", "properties": { "id": "5647017", "label": "5647017", "district": "LA LEJIA", "municipality": "SAN ANDRÉS DE CUERQUÍA" }, "geometry": { "type": "Point", "coordinates": [ -75.605868590357744, 6.960401170967314 ] } },
{ "type": "Feature", "properties": { "id": "5647026", "label": "5647026", "district": "SAN MIGUEL", "municipality": "SAN ANDRÉS DE CUERQUÍA" }, "geometry": { "type": "Point", "coordinates": [ -75.622725563206785, 6.97140106666575 ] } },
{ "type": "Feature", "properties": { "id": "5887043", "label": "5887043", "district": "ROSALITO", "municipality": "YARUMAL" }, "geometry": { "type": "Point", "coordinates": [ -75.481989981362858, 6.978827832493993 ] } },
{ "type": "Feature", "properties": { "id": "5887052", "label": "5887052", "district": "YARUMALITO", "municipality": "YARUMAL" }, "geometry": { "type": "Point", "coordinates": [ -75.464149968805117, 6.957618182294308 ] } },
{ "type": "Feature", "properties": { "id": "5134014", "label": "5134014", "district": "CAÑAVERAL", "municipality": "CAMPAMENTO" }, "geometry": { "type": "Point", "coordinates": [ -75.336958119989475, 6.967095482574646 ] } },
{ "type": "Feature", "properties": { "id": "5134017", "label": "5134017", "district": "LA TRAVESIA", "municipality": "CAMPAMENTO" }, "geometry": { "type": "Point", "coordinates": [ -75.307755295933944, 6.969724332728254 ] } },
{ "type": "Feature", "properties": { "id": "5234073", "label": "5234073", "district": "LLANO DE CRUCES", "municipality": "DABEIBA" }, "geometry": { "type": "Point", "coordinates": [ -76.19413113857668, 7.006996490122374 ] } },
{ "type": "Feature", "properties": { "id": "5842026", "label": "5842026", "district": "NUDILLALES", "municipality": "URAMITA" }, "geometry": { "type": "Point", "coordinates": [ -76.136904376864123, 6.956939628749996 ] } },
{ "type": "Feature", "properties": { "id": "5234045", "label": "5234045", "district": "EL JORDAN BAJO", "municipality": "DABEIBA" }, "geometry": { "type": "Point", "coordinates": [ -76.0843764526374, 6.958304874237196 ] } },
{ "type": "Feature", "properties": { "id": "5113024", "label": "5113024", "district": "LLANOS DE URARCO", "municipality": "BURITICÁ" }, "geometry": { "type": "Point", "coordinates": [ -75.93045553567184, 6.920857334243381 ] } },
{ "type": "Feature", "properties": { "id": "5113006", "label": "5113006", "district": "CONEJOS", "municipality": "BURITICÁ" }, "geometry": { "type": "Point", "coordinates": [ -75.916021148782605, 6.952299821115624 ] } },
{ "type": "Feature", "properties": { "id": "5543003", "label": "5543003", "district": "CANDELARIA", "municipality": "PEQUE" }, "geometry": { "type": "Point", "coordinates": [ -75.886676556163849, 6.966363167228856 ] } },
{ "type": "Feature", "properties": { "id": "5628024", "label": "5628024", "district": "MOHAVA", "municipality": "SABANALARGA" }, "geometry": { "type": "Point", "coordinates": [ -75.776846717319472, 6.976052740423324 ] } },
{ "type": "Feature", "properties": { "id": "5819006", "label": "5819006", "district": "EL NARANJO", "municipality": "TOLEDO" }, "geometry": { "type": "Point", "coordinates": [ -75.715815511106086, 6.97097357392197 ] } },
{ "type": "Feature", "properties": { "id": "5887034", "label": "5887034", "district": "LA ZOORRA", "municipality": "YARUMAL" }, "geometry": { "type": "Point", "coordinates": [ -75.61517629995177, 6.999629240113089 ] } },
{ "type": "Feature", "properties": { "id": "5887027", "label": "5887027", "district": "LA GABRIELA", "municipality": "YARUMAL" }, "geometry": { "type": "Point", "coordinates": [ -75.529879634778311, 6.931502608132116 ] } },
{ "type": "Feature", "properties": { "id": "5887047", "label": "5887047", "district": "SANTA JUANA", "municipality": "YARUMAL" }, "geometry": { "type": "Point", "coordinates": [ -75.464038107588763, 6.926033406565407 ] } },
{ "type": "Feature", "properties": { "id": "5887049", "label": "5887049", "district": "CABECERA", "municipality": "YARUMAL" }, "geometry": { "type": "Point", "coordinates": [ -75.415659850106849, 6.95613758726055 ] } },
{ "type": "Feature", "properties": { "id": "5887016", "label": "5887016", "district": "JOSÉ MARIA CORDOBA", "municipality": "YARUMAL" }, "geometry": { "type": "Point", "coordinates": [ -75.386169284137921, 6.962751676605885 ] } },
{ "type": "Feature", "properties": { "id": "5887005", "label": "5887005", "district": "CHORROS BLANCOS ABAJO", "municipality": "YARUMAL" }, "geometry": { "type": "Point", "coordinates": [ -75.371951718148537, 6.950985077991402 ] } },
{ "type": "Feature", "properties": { "id": "5134013", "label": "5134013", "district": "EL OSO", "municipality": "CAMPAMENTO" }, "geometry": { "type": "Point", "coordinates": [ -75.290370814096462, 6.981186632998121 ] } },
{ "type": "Feature", "properties": { "id": "5842008", "label": "5842008", "district": "CAUNCE", "municipality": "URAMITA" }, "geometry": { "type": "Point", "coordinates": [ -76.149752733004547, 6.926346797121472 ] } },
{ "type": "Feature", "properties": { "id": "5543030", "label": "5543030", "district": "SAN JULIANCITO", "municipality": "PEQUE" }, "geometry": { "type": "Point", "coordinates": [ -75.91619079449346, 7.012903656573129 ] } },
{ "type": "Feature", "properties": { "id": "5543022", "label": "5543022", "district": "MADERAL", "municipality": "PEQUE" }, "geometry": { "type": "Point", "coordinates": [ -75.897975059353044, 6.945807363774731 ] } },
{ "type": "Feature", "properties": { "id": "5628013", "label": "5628013", "district": "LA LOMA", "municipality": "SABANALARGA" }, "geometry": { "type": "Point", "coordinates": [ -75.758838861660493, 6.963098969656579 ] } },
{ "type": "Feature", "properties": { "id": "5628030", "label": "5628030", "district": "SANTA MARIA", "municipality": "SABANALARGA" }, "geometry": { "type": "Point", "coordinates": [ -75.74524773017292, 6.970281662535798 ] } },
{ "type": "Feature", "properties": { "id": "5819017", "label": "5819017", "district": "SANTO DOMINGO", "municipality": "TOLEDO" }, "geometry": { "type": "Point", "coordinates": [ -75.697152166439977, 6.960145653823846 ] } },
{ "type": "Feature", "properties": { "id": "5647018", "label": "5647018", "district": "LAS MARGARITAS", "municipality": "SAN ANDRÉS DE CUERQUÍA" }, "geometry": { "type": "Point", "coordinates": [ -75.675920315750702, 6.985921571787791 ] } },
{ "type": "Feature", "properties": { "id": "5647002", "label": "5647002", "district": "ALTO SECO", "municipality": "SAN ANDRÉS DE CUERQUÍA" }, "geometry": { "type": "Point", "coordinates": [ -75.677487074304238, 6.94756965805582 ] } },
{ "type": "Feature", "properties": { "id": "5647028", "label": "5647028", "district": "TRAVESIAS", "municipality": "SAN ANDRÉS DE CUERQUÍA" }, "geometry": { "type": "Point", "coordinates": [ -75.666685917336892, 6.978655265234215 ] } },
{ "type": "Feature", "properties": { "id": "5819018", "label": "5819018", "district": "TAQUE", "municipality": "TOLEDO" }, "geometry": { "type": "Point", "coordinates": [ -75.689722008760526, 6.987640092659888 ] } },
{ "type": "Feature", "properties": { "id": "5647014", "label": "5647014", "district": "LA CHORRERA", "municipality": "SAN ANDRÉS DE CUERQUÍA" }, "geometry": { "type": "Point", "coordinates": [ -75.625512314947287, 6.925005755382915 ] } },
{ "type": "Feature", "properties": { "id": "5234081", "label": "5234081", "district": "MONOS LA HORQUETA", "municipality": "DABEIBA" }, "geometry": { "type": "Point", "coordinates": [ -76.219762030760577, 6.971088692738467 ] } },
{ "type": "Feature", "properties": { "id": "5234078", "label": "5234078", "district": "LOPIA", "municipality": "DABEIBA" }, "geometry": { "type": "Point", "coordinates": [ -76.232153871860675, 6.989016101683026 ] } },
{ "type": "Feature", "properties": { "id": "5234038", "label": "5234038", "district": "EL COCAL", "municipality": "DABEIBA" }, "geometry": { "type": "Point", "coordinates": [ -76.217075578214619, 7.00835815891199 ] } },
{ "type": "Feature", "properties": { "id": "5842015", "label": "5842015", "district": "ENCALICHADA", "municipality": "URAMITA" }, "geometry": { "type": "Point", "coordinates": [ -76.179161655631887, 6.928685531682982 ] } },
{ "type": "Feature", "properties": { "id": "5842038", "label": "5842038", "district": "TORONJO", "municipality": "URAMITA" }, "geometry": { "type": "Point", "coordinates": [ -76.027585267141959, 6.943940861797993 ] } },
{ "type": "Feature", "properties": { "id": "5543002", "label": "5543002", "district": "BELLAVISTA", "municipality": "PEQUE" }, "geometry": { "type": "Point", "coordinates": [ -75.86551292139491, 6.951704314469623 ] } },
{ "type": "Feature", "properties": { "id": "5628014", "label": "5628014", "district": "LA MESETA", "municipality": "SABANALARGA" }, "geometry": { "type": "Point", "coordinates": [ -75.783538735715993, 6.95277088006451 ] } },
{ "type": "Feature", "properties": { "id": "5819004", "label": "5819004", "district": "BUENAVISTA", "municipality": "TOLEDO" }, "geometry": { "type": "Point", "coordinates": [ -75.708779249329936, 6.944523277730811 ] } },
{ "type": "Feature", "properties": { "id": "5647003", "label": "5647003", "district": "ATEZAL", "municipality": "SAN ANDRÉS DE CUERQUÍA" }, "geometry": { "type": "Point", "coordinates": [ -75.691882977413741, 6.935002784530502 ] } },
{ "type": "Feature", "properties": { "id": "5647001", "label": "5647001", "district": "AGUACATAL", "municipality": "SAN ANDRÉS DE CUERQUÍA" }, "geometry": { "type": "Point", "coordinates": [ -75.637775672349306, 6.971569533737035 ] } },
{ "type": "Feature", "properties": { "id": "5647010", "label": "5647010", "district": "EL VERGEL", "municipality": "SAN ANDRÉS DE CUERQUÍA" }, "geometry": { "type": "Point", "coordinates": [ -75.639755754221738, 6.946682722048523 ] } },
{ "type": "Feature", "properties": { "id": "5647005", "label": "5647005", "district": "CRUCES", "municipality": "SAN ANDRÉS DE CUERQUÍA" }, "geometry": { "type": "Point", "coordinates": [ -75.614647276890778, 6.893330440613326 ] } },
{ "type": "Feature", "properties": { "id": "5134032", "label": "5134032", "district": "LOS RANCHOS", "municipality": "CAMPAMENTO" }, "geometry": { "type": "Point", "coordinates": [ -75.294083457677516, 6.970102819963786 ] } },
{ "type": "Feature", "properties": { "id": "5134012", "label": "5134012", "district": "LA FRISOLERA", "municipality": "CAMPAMENTO" }, "geometry": { "type": "Point", "coordinates": [ -75.247519154285527, 6.974469294048459 ] } },
{ "type": "Feature", "properties": { "id": "5134009", "label": "5134009", "district": "SAN PABLO", "municipality": "CAMPAMENTO" }, "geometry": { "type": "Point", "coordinates": [ -75.240143883869791, 7.010205703542796 ] } },
{ "type": "Feature", "properties": { "id": "5842039", "label": "5842039", "district": "TRAVESIAS", "municipality": "URAMITA" }, "geometry": { "type": "Point", "coordinates": [ -76.1172224646741, 6.941996836507821 ] } },
{ "type": "Feature", "properties": { "id": "5234056", "label": "5234056", "district": "GUADUALITO", "municipality": "DABEIBA" }, "geometry": { "type": "Point", "coordinates": [ -76.103999769336696, 6.969539170143662 ] } },
{ "type": "Feature", "properties": { "id": "5647020", "label": "5647020", "district": "LOMA GRANDE", "municipality": "SAN ANDRÉS DE CUERQUÍA" }, "geometry": { "type": "Point", "coordinates": [ -75.66918189886465, 6.962687400637083 ] } },
{ "type": "Feature", "properties": { "id": "5647009", "label": "5647009", "district": "EL FILO", "municipality": "SAN ANDRÉS DE CUERQUÍA" }, "geometry": { "type": "Point", "coordinates": [ -75.635984553491099, 6.956976258964075 ] } },
{ "type": "Feature", "properties": { "id": "5887017", "label": "5887017", "district": "LA ARGENTINA", "municipality": "YARUMAL" }, "geometry": { "type": "Point", "coordinates": [ -75.542515645951141, 6.894139198771404 ] } },
{ "type": "Feature", "properties": { "id": "5887014", "label": "5887014", "district": "EL RETIRO", "municipality": "YARUMAL" }, "geometry": { "type": "Point", "coordinates": [ -75.497949110896712, 6.913461603940066 ] } },
{ "type": "Feature", "properties": { "id": "5887048", "label": "5887048", "district": "SANTA RITA", "municipality": "YARUMAL" }, "geometry": { "type": "Point", "coordinates": [ -75.384389068082896, 6.923430378374673 ] } },
{ "type": "Feature", "properties": { "id": "5887031", "label": "5887031", "district": "LA SIRIA", "municipality": "YARUMAL" }, "geometry": { "type": "Point", "coordinates": [ -75.402544815134121, 6.924606146799919 ] } },
{ "type": "Feature", "properties": { "id": "5134011", "label": "5134011", "district": "LA CHIQUITA", "municipality": "CAMPAMENTO" }, "geometry": { "type": "Point", "coordinates": [ -75.26089250553062, 6.971419239131118 ] } },
{ "type": "Feature", "properties": { "id": "5040039", "label": "5040039", "district": "MONTEFRIO", "municipality": "ANORÍ" }, "geometry": { "type": "Point", "coordinates": [ -75.167422877623096, 6.967600481452624 ] } },
{ "type": "Feature", "properties": { "id": "5040036", "label": "5040036", "district": "MEDIAS FALDAS", "municipality": "ANORÍ" }, "geometry": { "type": "Point", "coordinates": [ -75.202374239055928, 6.957575391662299 ] } },
{ "type": "Feature", "properties": { "id": "5842025", "label": "5842025", "district": "MURRAPAL", "municipality": "URAMITA" }, "geometry": { "type": "Point", "coordinates": [ -76.19415838715345, 6.924827676801305 ] } },
{ "type": "Feature", "properties": { "id": "5842036", "label": "5842036", "district": "SAN FRANCISCO", "municipality": "URAMITA" }, "geometry": { "type": "Point", "coordinates": [ -76.210916443619411, 6.933957889717062 ] } },
{ "type": "Feature", "properties": { "id": "5842024", "label": "5842024", "district": "MONOS", "municipality": "URAMITA" }, "geometry": { "type": "Point", "coordinates": [ -76.216275826359293, 6.954996108083421 ] } },
{ "type": "Feature", "properties": { "id": "5138026", "label": "5138026", "district": "JUNTAS DE LA URAMITA", "municipality": "CAÑASGORDAS" }, "geometry": { "type": "Point", "coordinates": [ -76.027377540443609, 6.917349887221237 ] } },
{ "type": "Feature", "properties": { "id": "5628005", "label": "5628005", "district": "EL ORO", "municipality": "SABANALARGA" }, "geometry": { "type": "Point", "coordinates": [ -75.757391748301799, 6.92789523156215 ] } },
{ "type": "Feature", "properties": { "id": "5628018", "label": "5628018", "district": "LLANO DEL ORO", "municipality": "SABANALARGA" }, "geometry": { "type": "Point", "coordinates": [ -75.748854429903929, 6.949498013609267 ] } },
{ "type": "Feature", "properties": { "id": "5819002", "label": "5819002", "district": "BIOGUI", "municipality": "TOLEDO" }, "geometry": { "type": "Point", "coordinates": [ -75.724507884766808, 6.940083536318511 ] } },
{ "type": "Feature", "properties": { "id": "5647023", "label": "5647023", "district": "MONTEBELLO", "municipality": "SAN ANDRÉS DE CUERQUÍA" }, "geometry": { "type": "Point", "coordinates": [ -75.716287771509315, 6.925174281588916 ] } },
{ "type": "Feature", "properties": { "id": "5819016", "label": "5819016", "district": "SANTA MARÍA", "municipality": "TOLEDO" }, "geometry": { "type": "Point", "coordinates": [ -75.733885033329244, 6.946741406507641 ] } },
{ "type": "Feature", "properties": { "id": "5647011", "label": "5647011", "district": "EL MORO", "municipality": "SAN ANDRÉS DE CUERQUÍA" }, "geometry": { "type": "Point", "coordinates": [ -75.644866145002126, 6.963836991795104 ] } },
{ "type": "Feature", "properties": { "id": "5887013", "label": "5887013", "district": "EL RESPALDO", "municipality": "YARUMAL" }, "geometry": { "type": "Point", "coordinates": [ -75.430681009152394, 6.911019889416291 ] } },
{ "type": "Feature", "properties": { "id": "5887002", "label": "5887002", "district": "CAÑAVERAL", "municipality": "YARUMAL" }, "geometry": { "type": "Point", "coordinates": [ -75.345293160931504, 6.939103775065595 ] } },
{ "type": "Feature", "properties": { "id": "5038004", "label": "5038004", "district": "CAÑAVERAL ARRIBA", "municipality": "ANGOSTURA" }, "geometry": { "type": "Point", "coordinates": [ -75.33422878344517, 6.937854542866826 ] } },
{ "type": "Feature", "properties": { "id": "5038029", "label": "5038029", "district": "MONTAÑITA", "municipality": "ANGOSTURA" }, "geometry": { "type": "Point", "coordinates": [ -75.335232078505342, 6.917082099325104 ] } },
{ "type": "Feature", "properties": { "id": "5038018", "label": "5038018", "district": "LA MILAGROSA", "municipality": "ANGOSTURA" }, "geometry": { "type": "Point", "coordinates": [ -75.264903329288472, 6.951480283697107 ] } },
{ "type": "Feature", "properties": { "id": "5038044", "label": "5038044", "district": "TENCHE ALGODON", "municipality": "ANGOSTURA" }, "geometry": { "type": "Point", "coordinates": [ -75.277741342333655, 6.926910765483675 ] } },
{ "type": "Feature", "properties": { "id": "5038019", "label": "5038019", "district": "LA MONTAÑA", "municipality": "ANGOSTURA" }, "geometry": { "type": "Point", "coordinates": [ -75.252905943065315, 6.938897649050022 ] } },
{ "type": "Feature", "properties": { "id": "5038020", "label": "5038020", "district": "LA MUÑOZ", "municipality": "ANGOSTURA" }, "geometry": { "type": "Point", "coordinates": [ -75.250947620891282, 6.924612637111122 ] } },
{ "type": "Feature", "properties": { "id": "5040018", "label": "5040018", "district": "LA CASITA", "municipality": "ANORÍ" }, "geometry": { "type": "Point", "coordinates": [ -75.182539465880453, 6.935156258431062 ] } },
{ "type": "Feature", "properties": { "id": "5842012", "label": "5842012", "district": "COMINAL", "municipality": "URAMITA" }, "geometry": { "type": "Point", "coordinates": [ -76.094807877644428, 6.937018358792784 ] } },
{ "type": "Feature", "properties": { "id": "5842022", "label": "5842022", "district": "MEDIACUESTA", "municipality": "URAMITA" }, "geometry": { "type": "Point", "coordinates": [ -76.061086414282016, 6.933140234539755 ] } },
{ "type": "Feature", "properties": { "id": "5842020", "label": "5842020", "district": "LIMON CHUPADERO", "municipality": "URAMITA" }, "geometry": { "type": "Point", "coordinates": [ -76.110391884906946, 6.916880544534721 ] } },
{ "type": "Feature", "properties": { "id": "5628009", "label": "5628009", "district": "FILO DE LOS PEREZ", "municipality": "SABANALARGA" }, "geometry": { "type": "Point", "coordinates": [ -75.742815180654986, 6.926574335368197 ] } },
{ "type": "Feature", "properties": { "id": "5647015", "label": "5647015", "district": "LA CIENAGA", "municipality": "SAN ANDRÉS DE CUERQUÍA" }, "geometry": { "type": "Point", "coordinates": [ -75.718041769842117, 6.908921129939889 ] } },
{ "type": "Feature", "properties": { "id": "5628023", "label": "5628023", "district": "MEMBRILLAL", "municipality": "SABANALARGA" }, "geometry": { "type": "Point", "coordinates": [ -75.81329597938705, 6.900319006660855 ] } },
{ "type": "Feature", "properties": { "id": "5647025", "label": "5647025", "district": "SAN JULIÁN", "municipality": "SAN ANDRÉS DE CUERQUÍA" }, "geometry": { "type": "Point", "coordinates": [ -75.725186302639244, 6.890016157092375 ] } },
{ "type": "Feature", "properties": { "id": "5647013", "label": "5647013", "district": "EL ROBLE", "municipality": "SAN ANDRÉS DE CUERQUÍA" }, "geometry": { "type": "Point", "coordinates": [ -75.654350221276587, 6.943200188399516 ] } },
{ "type": "Feature", "properties": { "id": "5647006", "label": "5647006", "district": "EL BARRO", "municipality": "SAN ANDRÉS DE CUERQUÍA" }, "geometry": { "type": "Point", "coordinates": [ -75.665003262787963, 6.908060381708989 ] } },
{ "type": "Feature", "properties": { "id": "5038030", "label": "5038030", "district": "MORELIA", "municipality": "ANGOSTURA" }, "geometry": { "type": "Point", "coordinates": [ -75.390358199584853, 6.885921855142272 ] } },
{ "type": "Feature", "properties": { "id": "5887037", "label": "5887037", "district": "MALLARINO", "municipality": "YARUMAL" }, "geometry": { "type": "Point", "coordinates": [ -75.366950827416915, 6.940104378857347 ] } },
{ "type": "Feature", "properties": { "id": "5887026", "label": "5887026", "district": "LA ESTRELLA", "municipality": "YARUMAL" }, "geometry": { "type": "Point", "coordinates": [ -75.362208519803119, 6.928451139455382 ] } },
{ "type": "Feature", "properties": { "id": "5234049", "label": "5234049", "district": "EL PITAL", "municipality": "DABEIBA" }, "geometry": { "type": "Point", "coordinates": [ -76.273411134275293, 6.968262968592366 ] } },
{ "type": "Feature", "properties": { "id": "5234025", "label": "5234025", "district": "CHOROMANDO ALTO MEDIO", "municipality": "DABEIBA" }, "geometry": { "type": "Point", "coordinates": [ -76.310247683890964, 6.942222459696318 ] } },
{ "type": "Feature", "properties": { "id": "5842035", "label": "5842035", "district": "SAN BENITO", "municipality": "URAMITA" }, "geometry": { "type": "Point", "coordinates": [ -76.066706159198858, 6.91442086940163 ] } },
{ "type": "Feature", "properties": { "id": "5138051", "label": "5138051", "district": "SAN JOSÉ DE JUNTAS", "municipality": "CAÑASGORDAS" }, "geometry": { "type": "Point", "coordinates": [ -75.986960395650897, 6.903524001295231 ] } },
{ "type": "Feature", "properties": { "id": "5543004", "label": "5543004", "district": "EL AGRIO", "municipality": "PEQUE" }, "geometry": { "type": "Point", "coordinates": [ -75.874617745540064, 6.931399222366854 ] } },
{ "type": "Feature", "properties": { "id": "5543018", "label": "5543018", "district": "LOMA DEL SAUCE", "municipality": "PEQUE" }, "geometry": { "type": "Point", "coordinates": [ -75.862988572241022, 6.905459947568477 ] } },
{ "type": "Feature", "properties": { "id": "5113020", "label": "5113020", "district": "LAS BRISAS", "municipality": "BURITICÁ" }, "geometry": { "type": "Point", "coordinates": [ -75.886371741269102, 6.900278318759567 ] } },
{ "type": "Feature", "properties": { "id": "5628019", "label": "5628019", "district": "LOS TENDIDOS", "municipality": "SABANALARGA" }, "geometry": { "type": "Point", "coordinates": [ -75.773033705057216, 6.918491010337282 ] } },
{ "type": "Feature", "properties": { "id": "5647022", "label": "5647022", "district": "MONTAÑA ADENTRO", "municipality": "SAN ANDRÉS DE CUERQUÍA" }, "geometry": { "type": "Point", "coordinates": [ -75.689056622250732, 6.915808879141451 ] } },
{ "type": "Feature", "properties": { "id": "5887018", "label": "5887018", "district": "LA BELLA", "municipality": "YARUMAL" }, "geometry": { "type": "Point", "coordinates": [ -75.467008224374922, 6.892071665150725 ] } },
{ "type": "Feature", "properties": { "id": "5038026", "label": "5038026", "district": "MALDONADO", "municipality": "ANGOSTURA" }, "geometry": { "type": "Point", "coordinates": [ -75.356939393140891, 6.912673983448424 ] } },
{ "type": "Feature", "properties": { "id": "5038022", "label": "5038022", "district": "LA QUINTA", "municipality": "ANGOSTURA" }, "geometry": { "type": "Point", "coordinates": [ -75.345623323329662, 6.900872467182828 ] } },
{ "type": "Feature", "properties": { "id": "5134003", "label": "5134003", "district": "CHAQUIRAL", "municipality": "CAMPAMENTO" }, "geometry": { "type": "Point", "coordinates": [ -75.236868231200319, 6.951764623680507 ] } },
{ "type": "Feature", "properties": { "id": "5040040", "label": "5040040", "district": "PAJONAL", "municipality": "ANORÍ" }, "geometry": { "type": "Point", "coordinates": [ -75.177652367142002, 6.92244239045813 ] } },
{ "type": "Feature", "properties": { "id": "5842010", "label": "5842010", "district": "CHONTADURAL", "municipality": "URAMITA" }, "geometry": { "type": "Point", "coordinates": [ -76.091744590313894, 6.910726393050171 ] } },
{ "type": "Feature", "properties": { "id": "5138011", "label": "5138011", "district": "CHUPADERO", "municipality": "CAÑASGORDAS" }, "geometry": { "type": "Point", "coordinates": [ -76.024139681708505, 6.892559432697914 ] } },
{ "type": "Feature", "properties": { "id": "5628007", "label": "5628007", "district": "EL SOCORRO", "municipality": "SABANALARGA" }, "geometry": { "type": "Point", "coordinates": [ -75.751940429135502, 6.897112818866836 ] } },
{ "type": "Feature", "properties": { "id": "5628008", "label": "5628008", "district": "EL TAMBO", "municipality": "SABANALARGA" }, "geometry": { "type": "Point", "coordinates": [ -75.784206266906068, 6.897786204741991 ] } },
{ "type": "Feature", "properties": { "id": "5628017", "label": "5628017", "district": "LLANO DE LOS ENCUENTROS", "municipality": "SABANALARGA" }, "geometry": { "type": "Point", "coordinates": [ -75.791818712485366, 6.915496079576488 ] } },
{ "type": "Feature", "properties": { "id": "5647024", "label": "5647024", "district": "SAN ANTONIO", "municipality": "SAN ANDRÉS DE CUERQUÍA" }, "geometry": { "type": "Point", "coordinates": [ -75.696534013063825, 6.888936305713062 ] } },
{ "type": "Feature", "properties": { "id": "5647004", "label": "5647004", "district": "CAÑADUZALES", "municipality": "SAN ANDRÉS DE CUERQUÍA" }, "geometry": { "type": "Point", "coordinates": [ -75.668261495238127, 6.926188994660706 ] } },
{ "type": "Feature", "properties": { "id": "5315020", "label": "5315020", "district": "SAN PABLO CANEY", "municipality": "GUADALUPE" }, "geometry": { "type": "Point", "coordinates": [ -75.222478388305433, 6.909957932921275 ] } },
{ "type": "Feature", "properties": { "id": "5134033", "label": "5134033", "district": "LA IRLANDA", "municipality": "CAMPAMENTO" }, "geometry": { "type": "Point", "coordinates": [ -75.230117218337767, 6.94084736341555 ] } },
{ "type": "Feature", "properties": { "id": "5315012", "label": "5315012", "district": "MARRON", "municipality": "GUADALUPE" }, "geometry": { "type": "Point", "coordinates": [ -75.197249477596415, 6.906082840449506 ] } },
{ "type": "Feature", "properties": { "id": "5234030", "label": "5234030", "district": "CRUCES DE TUGURIDO", "municipality": "DABEIBA" }, "geometry": { "type": "Point", "coordinates": [ -76.330287085103151, 6.885770788628125 ] } },
{ "type": "Feature", "properties": { "id": "5234047", "label": "5234047", "district": "EL MOHAN", "municipality": "DABEIBA" }, "geometry": { "type": "Point", "coordinates": [ -76.27745592798928, 6.921031880013195 ] } },
{ "type": "Feature", "properties": { "id": "5284001", "label": "5284001", "district": "BARRANCAS", "municipality": "FRONTINO" }, "geometry": { "type": "Point", "coordinates": [ -76.277982110532918, 6.881899601021885 ] } },
{ "type": "Feature", "properties": { "id": "5138053", "label": "5138053", "district": "SAN LUIS", "municipality": "CAÑASGORDAS" }, "geometry": { "type": "Point", "coordinates": [ -75.992208791813823, 6.877527338661209 ] } },
{ "type": "Feature", "properties": { "id": "5113019", "label": "5113019", "district": "LA VEGA", "municipality": "BURITICÁ" }, "geometry": { "type": "Point", "coordinates": [ -75.950483317857376, 6.870759551423345 ] } },
{ "type": "Feature", "properties": { "id": "5647019", "label": "5647019", "district": "LLANADAS", "municipality": "SAN ANDRÉS DE CUERQUÍA" }, "geometry": { "type": "Point", "coordinates": [ -75.741576752313676, 6.842361054962415 ] } },
{ "type": "Feature", "properties": { "id": "5658004", "label": "5658004", "district": "LA MARIA", "municipality": "SAN JOSÉ DE LA MONTAÑA" }, "geometry": { "type": "Point", "coordinates": [ -75.657753980645026, 6.839768336628282 ] } },
{ "type": "Feature", "properties": { "id": "5887044", "label": "5887044", "district": "SAN ANTONIO", "municipality": "YARUMAL" }, "geometry": { "type": "Point", "coordinates": [ -75.499637927985631, 6.874733594090698 ] } },
{ "type": "Feature", "properties": { "id": "5887032", "label": "5887032", "district": "LA TERESITA", "municipality": "YARUMAL" }, "geometry": { "type": "Point", "coordinates": [ -75.467497784675317, 6.864049825656505 ] } },
{ "type": "Feature", "properties": { "id": "5038016", "label": "5038016", "district": "GUASIMO", "municipality": "ANGOSTURA" }, "geometry": { "type": "Point", "coordinates": [ -75.437980271640455, 6.859916727381113 ] } },
{ "type": "Feature", "properties": { "id": "5038031", "label": "5038031", "district": "ORIENTE", "municipality": "ANGOSTURA" }, "geometry": { "type": "Point", "coordinates": [ -75.253448665767493, 6.908360010032822 ] } },
{ "type": "Feature", "properties": { "id": "5315022", "label": "5315022", "district": "SAN VICENTE LA SUSANA", "municipality": "GUADALUPE" }, "geometry": { "type": "Point", "coordinates": [ -75.237357480670383, 6.897582423438267 ] } },
{ "type": "Feature", "properties": { "id": "5315018", "label": "5315018", "district": "SAN JUAN", "municipality": "GUADALUPE" }, "geometry": { "type": "Point", "coordinates": [ -75.219579240376035, 6.863719678241227 ] } },
{ "type": "Feature", "properties": { "id": "5284048", "label": "5284048", "district": "SAN ANDRES", "municipality": "FRONTINO" }, "geometry": { "type": "Point", "coordinates": [ -76.260739645783971, 6.900011907750014 ] } },
{ "type": "Feature", "properties": { "id": "5113003", "label": "5113003", "district": "BUENA VISTA", "municipality": "BURITICÁ" }, "geometry": { "type": "Point", "coordinates": [ -75.868107489873623, 6.86294101747094 ] } },
{ "type": "Feature", "properties": { "id": "5628025", "label": "5628025", "district": "NIQUIA", "municipality": "SABANALARGA" }, "geometry": { "type": "Point", "coordinates": [ -75.765647086373718, 6.874096635471235 ] } },
{ "type": "Feature", "properties": { "id": "5658007", "label": "5658007", "district": "SANTA BARBARA", "municipality": "SAN JOSÉ DE LA MONTAÑA" }, "geometry": { "type": "Point", "coordinates": [ -75.699995886918245, 6.868163080154972 ] } },
{ "type": "Feature", "properties": { "id": "5038028", "label": "5038028", "district": "MATA BLANCO", "municipality": "ANGOSTURA" }, "geometry": { "type": "Point", "coordinates": [ -75.320731031165337, 6.901138551044361 ] } },
{ "type": "Feature", "properties": { "id": "5038034", "label": "5038034", "district": "PAJARITO ARRIBA", "municipality": "ANGOSTURA" }, "geometry": { "type": "Point", "coordinates": [ -75.349074144070627, 6.883694257508534 ] } },
{ "type": "Feature", "properties": { "id": "5315023", "label": "5315023", "district": "SAN VICENTE LOS SAUCES", "municipality": "GUADALUPE" }, "geometry": { "type": "Point", "coordinates": [ -75.248190940731703, 6.886033283704148 ] } },
{ "type": "Feature", "properties": { "id": "5284034", "label": "5284034", "district": "MONTANON", "municipality": "FRONTINO" }, "geometry": { "type": "Point", "coordinates": [ -76.274537971678569, 6.861678296014326 ] } },
{ "type": "Feature", "properties": { "id": "5284019", "label": "5284019", "district": "FUEMIA", "municipality": "FRONTINO" }, "geometry": { "type": "Point", "coordinates": [ -76.259985197969542, 6.848949497104853 ] } },
{ "type": "Feature", "properties": { "id": "5113034", "label": "5113034", "district": "SOPETRANSITO", "municipality": "BURITICÁ" }, "geometry": { "type": "Point", "coordinates": [ -75.92601290134364, 6.86688232884747 ] } },
{ "type": "Feature", "properties": { "id": "5113013", "label": "5113013", "district": "GUADUAL", "municipality": "BURITICÁ" }, "geometry": { "type": "Point", "coordinates": [ -75.88732249402868, 6.879887127567608 ] } },
{ "type": "Feature", "properties": { "id": "5628002", "label": "5628002", "district": "EL ENCANTO", "municipality": "SABANALARGA" }, "geometry": { "type": "Point", "coordinates": [ -75.787919654557257, 6.883713192149245 ] } },
{ "type": "Feature", "properties": { "id": "5658001", "label": "5658001", "district": "CAMBURE", "municipality": "SAN JOSÉ DE LA MONTAÑA" }, "geometry": { "type": "Point", "coordinates": [ -75.679776181243412, 6.847250169968309 ] } },
{ "type": "Feature", "properties": { "id": "5038009", "label": "5038009", "district": "DOLORES", "municipality": "ANGOSTURA" }, "geometry": { "type": "Point", "coordinates": [ -75.388115166092234, 6.8445964048529 ] } },
{ "type": "Feature", "properties": { "id": "5284036", "label": "5284036", "district": "MURINDO", "municipality": "FRONTINO" }, "geometry": { "type": "Point", "coordinates": [ -76.245596017511815, 6.90836918984501 ] } },
{ "type": "Feature", "properties": { "id": "5138038", "label": "5138038", "district": "LA MANGA", "municipality": "CAÑASGORDAS" }, "geometry": { "type": "Point", "coordinates": [ -75.987781225616757, 6.842888301720995 ] } },
{ "type": "Feature", "properties": { "id": "5628032", "label": "5628032", "district": "TESORERO", "municipality": "SABANALARGA" }, "geometry": { "type": "Point", "coordinates": [ -75.778397998404444, 6.861762612550216 ] } },
{ "type": "Feature", "properties": { "id": "5686019", "label": "5686019", "district": "EL QUINCE", "municipality": "SANTA ROSA DE OSOS" }, "geometry": { "type": "Point", "coordinates": [ -75.626955611145164, 6.86193376428327 ] } },
{ "type": "Feature", "properties": { "id": "5887046", "label": "5887046", "district": "SANTA ISABEL", "municipality": "YARUMAL" }, "geometry": { "type": "Point", "coordinates": [ -75.531826900907561, 6.84296152645487 ] } },
{ "type": "Feature", "properties": { "id": "5038017", "label": "5038017", "district": "LA CULEBRA", "municipality": "ANGOSTURA" }, "geometry": { "type": "Point", "coordinates": [ -75.349719137985346, 6.86134202600496 ] } },
{ "type": "Feature", "properties": { "id": "5038001", "label": "5038001", "district": "ALTO RHIN", "municipality": "ANGOSTURA" }, "geometry": { "type": "Point", "coordinates": [ -75.32375599691288, 6.879423725846408 ] } },
{ "type": "Feature", "properties": { "id": "5038025", "label": "5038025", "district": "LOS PINOS", "municipality": "ANGOSTURA" }, "geometry": { "type": "Point", "coordinates": [ -75.338440595850514, 6.875169877523917 ] } },
{ "type": "Feature", "properties": { "id": "5038043", "label": "5038043", "district": "SANTA TERESA", "municipality": "ANGOSTURA" }, "geometry": { "type": "Point", "coordinates": [ -75.267890310127044, 6.877843642197009 ] } },
{ "type": "Feature", "properties": { "id": "5315017", "label": "5315017", "district": "SAN BASILIO MEDIO", "municipality": "GUADALUPE" }, "geometry": { "type": "Point", "coordinates": [ -75.23194460312078, 6.86815638179237 ] } },
{ "type": "Feature", "properties": { "id": "5031040", "label": "5031040", "district": "MARIA TERESA", "municipality": "AMALFI" }, "geometry": { "type": "Point", "coordinates": [ -75.128602934178701, 6.900834677586595 ] } },
{ "type": "Feature", "properties": { "id": "5031003", "label": "5031003", "district": "CARACOLI", "municipality": "AMALFI" }, "geometry": { "type": "Point", "coordinates": [ -75.116512095040449, 6.857190077117743 ] } },
{ "type": "Feature", "properties": { "id": "5031034", "label": "5031034", "district": "LA VIBORA", "municipality": "AMALFI" }, "geometry": { "type": "Point", "coordinates": [ -75.082475980793475, 6.918761117644536 ] } },
{ "type": "Feature", "properties": { "id": "5031017", "label": "5031017", "district": "EL TAPARO", "municipality": "AMALFI" }, "geometry": { "type": "Point", "coordinates": [ -75.080490989106664, 6.872655128162023 ] } },
{ "type": "Feature", "properties": { "id": "5234029", "label": "5234029", "district": "CHUSCAL TUGORIDO", "municipality": "DABEIBA" }, "geometry": { "type": "Point", "coordinates": [ -76.354855632230738, 6.845877125903115 ] } },
{ "type": "Feature", "properties": { "id": "5138027", "label": "5138027", "district": "LA AGUADA", "municipality": "CAÑASGORDAS" }, "geometry": { "type": "Point", "coordinates": [ -76.044493022816781, 6.870911018011153 ] } },
{ "type": "Feature", "properties": { "id": "5138059", "label": "5138059", "district": "SANTO DOMINGO", "municipality": "CAÑASGORDAS" }, "geometry": { "type": "Point", "coordinates": [ -76.047477371628972, 6.890742800344731 ] } },
{ "type": "Feature", "properties": { "id": "5138058", "label": "5138058", "district": "SANTO CRISTO", "municipality": "CAÑASGORDAS" }, "geometry": { "type": "Point", "coordinates": [ -76.05888860732513, 6.856334743694348 ] } },
{ "type": "Feature", "properties": { "id": "5658005", "label": "5658005", "district": "LA MARIELA", "municipality": "SAN JOSÉ DE LA MONTAÑA" }, "geometry": { "type": "Point", "coordinates": [ -75.71897388907874, 6.827000231277318 ] } },
{ "type": "Feature", "properties": { "id": "5038036", "label": "5038036", "district": "QUIEBRA ABAJO", "municipality": "ANGOSTURA" }, "geometry": { "type": "Point", "coordinates": [ -75.312741003725435, 6.894197412162138 ] } },
{ "type": "Feature", "properties": { "id": "5038041", "label": "5038041", "district": "SANTA ANA", "municipality": "ANGOSTURA" }, "geometry": { "type": "Point", "coordinates": [ -75.31365837890317, 6.856589160700487 ] } },
{ "type": "Feature", "properties": { "id": "5315009", "label": "5315009", "district": "LA CRUZ", "municipality": "GUADALUPE" }, "geometry": { "type": "Point", "coordinates": [ -75.248961247263125, 6.865136152208711 ] } },
{ "type": "Feature", "properties": { "id": "5315016", "label": "5315016", "district": "SAN BASILIO ARRIBA", "municipality": "GUADALUPE" }, "geometry": { "type": "Point", "coordinates": [ -75.250908408153464, 6.840624749192679 ] } },
{ "type": "Feature", "properties": { "id": "5138056", "label": "5138056", "district": "SAN PASCUAL", "municipality": "CAÑASGORDAS" }, "geometry": { "type": "Point", "coordinates": [ -76.027486724192855, 6.85478511900877 ] } },
{ "type": "Feature", "properties": { "id": "5628031", "label": "5628031", "district": "TESORERITO", "municipality": "SABANALARGA" }, "geometry": { "type": "Point", "coordinates": [ -75.801023770424877, 6.856292027647466 ] } },
{ "type": "Feature", "properties": { "id": "5628029", "label": "5628029", "district": "SAN PEDRO", "municipality": "SABANALARGA" }, "geometry": { "type": "Point", "coordinates": [ -75.774784371543561, 6.835929985441351 ] } },
{ "type": "Feature", "properties": { "id": "5686056", "label": "5686056", "district": "SAN BERNARDO", "municipality": "SANTA ROSA DE OSOS" }, "geometry": { "type": "Point", "coordinates": [ -75.595537253141515, 6.843860724374867 ] } },
{ "type": "Feature", "properties": { "id": "5658006", "label": "5658006", "district": "POTRERITOS", "municipality": "SAN JOSÉ DE LA MONTAÑA" }, "geometry": { "type": "Point", "coordinates": [ -75.635632622489325, 6.813837609181656 ] } },
{ "type": "Feature", "properties": { "id": "5038023", "label": "5038023", "district": "LLANOS DE CUIVA", "municipality": "ANGOSTURA" }, "geometry": { "type": "Point", "coordinates": [ -75.450802835289338, 6.812803742354248 ] } },
{ "type": "Feature", "properties": { "id": "5887036", "label": "5887036", "district": "LLANOS DE CUIVA", "municipality": "YARUMAL" }, "geometry": { "type": "Point", "coordinates": [ -75.485735656948293, 6.833703914810902 ] } },
{ "type": "Feature", "properties": { "id": "5038032", "label": "5038032", "district": "PACORA", "municipality": "ANGOSTURA" }, "geometry": { "type": "Point", "coordinates": [ -75.344659074031156, 6.843607129266263 ] } },
{ "type": "Feature", "properties": { "id": "5038021", "label": "5038021", "district": "LA QUIEBRITA", "municipality": "ANGOSTURA" }, "geometry": { "type": "Point", "coordinates": [ -75.312593785173505, 6.880414044283952 ] } },
{ "type": "Feature", "properties": { "id": "5031011", "label": "5031011", "district": "EL GUAICO", "municipality": "AMALFI" }, "geometry": { "type": "Point", "coordinates": [ -75.158129565509796, 6.873192067173296 ] } },
{ "type": "Feature", "properties": { "id": "5113030", "label": "5113030", "district": "PALENQUE", "municipality": "BURITICÁ" }, "geometry": { "type": "Point", "coordinates": [ -75.907153042011615, 6.855059611659605 ] } },
{ "type": "Feature", "properties": { "id": "5628022", "label": "5628022", "district": "MAL PASO BUENOS AIRES", "municipality": "SABANALARGA" }, "geometry": { "type": "Point", "coordinates": [ -75.795857970298528, 6.83101299812094 ] } },
{ "type": "Feature", "properties": { "id": "5628006", "label": "5628006", "district": "EL PLACER", "municipality": "SABANALARGA" }, "geometry": { "type": "Point", "coordinates": [ -75.780338464118458, 6.804113005813616 ] } },
{ "type": "Feature", "properties": { "id": "5038042", "label": "5038042", "district": "SANTA RITA", "municipality": "ANGOSTURA" }, "geometry": { "type": "Point", "coordinates": [ -75.311220418773928, 6.83013602225201 ] } },
{ "type": "Feature", "properties": { "id": "5315004", "label": "5315004", "district": "EL MORRO", "municipality": "GUADALUPE" }, "geometry": { "type": "Point", "coordinates": [ -75.247981420194108, 6.826297517525131 ] } },
{ "type": "Feature", "properties": { "id": "5031028", "label": "5031028", "district": "LA GUYANA", "municipality": "AMALFI" }, "geometry": { "type": "Point", "coordinates": [ -75.140504293347504, 6.8208763794997 ] } },
{ "type": "Feature", "properties": { "id": "5234028", "label": "5234028", "district": "CHUSCAL DE MURRI", "municipality": "DABEIBA" }, "geometry": { "type": "Point", "coordinates": [ -76.312032904492284, 6.806714327221101 ] } },
{ "type": "Feature", "properties": { "id": "5113010", "label": "5113010", "district": "EL LEON", "municipality": "BURITICÁ" }, "geometry": { "type": "Point", "coordinates": [ -75.933958145549411, 6.800783936924069 ] } },
{ "type": "Feature", "properties": { "id": "5113007", "label": "5113007", "district": "COSTAS", "municipality": "BURITICÁ" }, "geometry": { "type": "Point", "coordinates": [ -75.951969594117557, 6.781919610732489 ] } },
{ "type": "Feature", "properties": { "id": "5113005", "label": "5113005", "district": "CHUNCHUNCO", "municipality": "BURITICÁ" }, "geometry": { "type": "Point", "coordinates": [ -75.933638018400373, 6.777357525432928 ] } },
{ "type": "Feature", "properties": { "id": "5113016", "label": "5113016", "district": "LA CORDILLERA", "municipality": "BURITICÁ" }, "geometry": { "type": "Point", "coordinates": [ -75.922232022409432, 6.834530080785654 ] } },
{ "type": "Feature", "properties": { "id": "5150006", "label": "5150006", "district": "TENCHE", "municipality": "CAROLINA" }, "geometry": { "type": "Point", "coordinates": [ -75.331416610642307, 6.76981186781044 ] } },
{ "type": "Feature", "properties": { "id": "5038037", "label": "5038037", "district": "QUIEBRA ARRIBA", "municipality": "ANGOSTURA" }, "geometry": { "type": "Point", "coordinates": [ -75.303715458918987, 6.884475402111787 ] } },
{ "type": "Feature", "properties": { "id": "5038040", "label": "5038040", "district": "SAN ANTONIO", "municipality": "ANGOSTURA" }, "geometry": { "type": "Point", "coordinates": [ -75.290163471683272, 6.856673842736538 ] } },
{ "type": "Feature", "properties": { "id": "5038038", "label": "5038038", "district": "RIO ARRIBA", "municipality": "ANGOSTURA" }, "geometry": { "type": "Point", "coordinates": [ -75.275956507824318, 6.841945202309292 ] } },
{ "type": "Feature", "properties": { "id": "5038024", "label": "5038024", "district": "LOS PANTANOS", "municipality": "ANGOSTURA" }, "geometry": { "type": "Point", "coordinates": [ -75.279923275794332, 6.86041360009895 ] } },
{ "type": "Feature", "properties": { "id": "5315007", "label": "5315007", "district": "GUANTEROS", "municipality": "GUADALUPE" }, "geometry": { "type": "Point", "coordinates": [ -75.220357092382955, 6.838424576918606 ] } },
{ "type": "Feature", "properties": { "id": "5031023", "label": "5031023", "district": "LA BLANQUITA - LA ESPERANZA", "municipality": "AMALFI" }, "geometry": { "type": "Point", "coordinates": [ -75.043416130706362, 6.849117982249695 ] } },
{ "type": "Feature", "properties": { "id": "5138020", "label": "5138020", "district": "EL RETIRO", "municipality": "CAÑASGORDAS" }, "geometry": { "type": "Point", "coordinates": [ -76.001929937299906, 6.814770802581829 ] } },
{ "type": "Feature", "properties": { "id": "5113031", "label": "5113031", "district": "SANTA TERESA", "municipality": "BURITICÁ" }, "geometry": { "type": "Point", "coordinates": [ -75.969756133364527, 6.785679703917134 ] } },
{ "type": "Feature", "properties": { "id": "5113009", "label": "5113009", "district": "EL CIENTO", "municipality": "BURITICÁ" }, "geometry": { "type": "Point", "coordinates": [ -75.923119380131368, 6.819215512326922 ] } },
{ "type": "Feature", "properties": { "id": "5038008", "label": "5038008", "district": "CONCEPCION", "municipality": "ANGOSTURA" }, "geometry": { "type": "Point", "coordinates": [ -75.347070962316707, 6.812781449751417 ] } },
{ "type": "Feature", "properties": { "id": "5031020", "label": "5031020", "district": "GUAYABITO", "municipality": "AMALFI" }, "geometry": { "type": "Point", "coordinates": [ -75.072393597964194, 6.796450803872085 ] } },
{ "type": "Feature", "properties": { "id": "5284022", "label": "5284022", "district": "LA CAMPIÑA", "municipality": "FRONTINO" }, "geometry": { "type": "Point", "coordinates": [ -76.260988956136487, 6.813458895782457 ] } },
{ "type": "Feature", "properties": { "id": "5284018", "label": "5284018", "district": "EL TAMBO", "municipality": "FRONTINO" }, "geometry": { "type": "Point", "coordinates": [ -76.274425704147191, 6.783054081772267 ] } },
{ "type": "Feature", "properties": { "id": "5284006", "label": "5284006", "district": "EL POMA", "municipality": "FRONTINO" }, "geometry": { "type": "Point", "coordinates": [ -76.213329384825954, 6.837483184146496 ] } },
{ "type": "Feature", "properties": { "id": "5284038", "label": "5284038", "district": "NOBOGA", "municipality": "FRONTINO" }, "geometry": { "type": "Point", "coordinates": [ -76.178797503082222, 6.813973909738952 ] } },
{ "type": "Feature", "properties": { "id": "5284039", "label": "5284039", "district": "NOBOGACITA", "municipality": "FRONTINO" }, "geometry": { "type": "Point", "coordinates": [ -76.205218392682326, 6.810703242902134 ] } },
{ "type": "Feature", "properties": { "id": "5113022", "label": "5113022", "district": "LLANO CHIQUITO", "municipality": "BURITICÁ" }, "geometry": { "type": "Point", "coordinates": [ -75.956021381261792, 6.818359917944657 ] } },
{ "type": "Feature", "properties": { "id": "5113017", "label": "5113017", "district": "LA FRAGUA", "municipality": "BURITICÁ" }, "geometry": { "type": "Point", "coordinates": [ -75.877978574761897, 6.826828633444369 ] } },
{ "type": "Feature", "properties": { "id": "5113035", "label": "5113035", "district": "TABACAL - VEREDA", "municipality": "BURITICÁ" }, "geometry": { "type": "Point", "coordinates": [ -75.906388164846561, 6.807095242899454 ] } },
{ "type": "Feature", "properties": { "id": "5113021", "label": "5113021", "district": "LAS CUATRO", "municipality": "BURITICÁ" }, "geometry": { "type": "Point", "coordinates": [ -75.897274524991417, 6.871330661257535 ] } },
{ "type": "Feature", "properties": { "id": "5628028", "label": "5628028", "district": "SAN CRISTOBAL PENA", "municipality": "SABANALARGA" }, "geometry": { "type": "Point", "coordinates": [ -75.832175680087317, 6.838719875820639 ] } },
{ "type": "Feature", "properties": { "id": "5628016", "label": "5628016", "district": "LA TRAVESIA", "municipality": "SABANALARGA" }, "geometry": { "type": "Point", "coordinates": [ -75.805407556563495, 6.815139322895158 ] } },
{ "type": "Feature", "properties": { "id": "5686055", "label": "5686055", "district": "SAMARIA", "municipality": "SANTA ROSA DE OSOS" }, "geometry": { "type": "Point", "coordinates": [ -75.593944171687241, 6.800154304036822 ] } },
{ "type": "Feature", "properties": { "id": "5038012", "label": "5038012", "district": "EL TAMBO", "municipality": "ANGOSTURA" }, "geometry": { "type": "Point", "coordinates": [ -75.403925950276076, 6.792579268385712 ] } },
{ "type": "Feature", "properties": { "id": "5315008", "label": "5315008", "district": "LA CANDELARIA", "municipality": "GUADALUPE" }, "geometry": { "type": "Point", "coordinates": [ -75.279786768528368, 6.828986126202937 ] } },
{ "type": "Feature", "properties": { "id": "5315001", "label": "5315001", "district": "CASCAJEROS", "municipality": "GUADALUPE" }, "geometry": { "type": "Point", "coordinates": [ -75.263637521610576, 6.812341572650084 ] } },
{ "type": "Feature", "properties": { "id": "5284033", "label": "5284033", "district": "LOS MONOS", "municipality": "FRONTINO" }, "geometry": { "type": "Point", "coordinates": [ -76.238524134979713, 6.833733990059787 ] } },
{ "type": "Feature", "properties": { "id": "5138035", "label": "5138035", "district": "LA ESTRELLA", "municipality": "CAÑASGORDAS" }, "geometry": { "type": "Point", "coordinates": [ -76.005323662262413, 6.777590100179767 ] } },
{ "type": "Feature", "properties": { "id": "5138041", "label": "5138041", "district": "LLANO GRANDE", "municipality": "CAÑASGORDAS" }, "geometry": { "type": "Point", "coordinates": [ -76.022887947385854, 6.814465257034085 ] } },